,original_,original_count,lat,lon,formatted,city,country,iso_alphas,country_processed,continent,ISO_corrected,ISOS
0,0,1102,53.550341,10.000654,"Hamburg, Germany",Hamburg,Germany,DE,Germany,Europe,,DE
1,1,267,44.9019105,-90.0245751,"Wien, WI, United States of America",Wien,United States,US,United States,North America,,US
2,2,245,52.5170365,13.3888599,"Berlin, Germany",Berlin,Germany,DE,Germany,Europe,,DE
3,3,213,43.8519774,18.3866868,"City of Sarajevo, Sarajevo Canton, Bosnia and Herzegovina",City of Sarajevo,Bosnia and Herzegovina,BA,Bosnia and Herzegovina,Europe,,BA
4,4,210,44.8178131,20.4568974,"11000 Belgrade, Serbia",Belgrade,Serbia,RS,Serbia,Europe,,RS
5,5,199,51.2254018,6.7763137,"Dusseldorf, North Rhine-Westphalia, Germany",Dusseldorf,Germany,DE,Germany,Europe,,DE
6,6,198,48.1371079,11.5753822,"Munich, Bavaria, Germany",Munich,Germany,DE,Germany,Europe,,DE
7,7,192,46.0500268,14.5069289,"Ljubljana, Slovenia",Ljubljana,Slovenia,SI,Slovenia,Europe,,SI
8,8,168,45.84264135,15.962231476593626,"Zagreb, Croatia",Zagreb,Croatia,HR,Croatia,Europe,,HR
9,9,148,47.48033265,12.07928067668956,"6300 Stadt Wörgl, Austria",Stadt Wörgl,Austria,AT,Austria,Europe,,AT
10,10,140,53.9827313,17.3996262,"77-130 Warszawa, Poland",Warszawa,Poland,PL,Poland,Europe,,PL
11,11,111,50.938361,6.959974,"Cologne, North Rhine-Westphalia, Germany",Cologne,Germany,DE,Germany,Europe,,DE
12,12,101,44.7720845,17.1917651,"78000 Banja Luka, Bosnia and Herzegovina",Banja Luka,Bosnia and Herzegovina,BA,Bosnia and Herzegovina,Europe,,BA
13,13,88,41.0091982,28.9662187,"34126 Istanbul, Turkey",Istanbul,Turkey,TR,Turkey,Asia,,TR
14,14,83,50.6667428,8.0474914,"Salzburg, Rhineland-Palatinate, Germany",Salzburg,Germany,DE,Germany,Europe,,DE
15,15,79,47.0708678,15.4382786,"Graz, Styria, Austria",Graz,Austria,AT,Austria,Europe,,AT
16,16,79,48.7084162,9.0035455,"Sindelfingen, BW, Germany",Sindelfingen,Germany,DE,Germany,Europe,,DE
17,17,64,47.4979937,19.0403594,"Budapest, Central Hungary, Hungary",Budapest,Hungary,HU,Hungary,Europe,,HU
18,18,63,23.7644025,90.389015,"Dhaka - 1215, Bangladesh",Dhaka,Bangladesh,BD,Bangladesh,Asia,,BD
19,19,60,47.2654296,11.3927685,"Innsbruck, Tyrol, Austria",Innsbruck,Austria,AT,Austria,Europe,,AT
20,20,59,48.7784485,9.1800132,"Stuttgart, BW, Germany",Stuttgart,Germany,DE,Germany,Europe,,DE
21,21,58,22.2793278,114.1628131,"Hong Kong Island, Hong Kong, China",Hong Kong Island,China,CN,China,Asia,,CN
22,22,57,45.2551338,19.8451756,"Novi Sad City, South Backa Administrative District, Serbia",Novi Sad City,Serbia,RS,Serbia,Europe,,RS
23,23,54,58.311923,16.2698962,"Zürich, Östergötland County, Sweden",Zürich,Sweden,SE,Sweden,Europe,,SE
24,24,49,50.0619474,19.9368564,"Krakow, Lesser Poland Voivodeship, Poland",Krakow,Poland,PL,Poland,Europe,,PL
25,25,49,44.8178131,20.4568974,"11000 Belgrade, Serbia",Belgrade,Serbia,RS,Serbia,Europe,,RS
26,26,47,51.3406321,12.3747329,"Leipzig, Saxony, Germany",Leipzig,Germany,DE,Germany,Europe,,DE
27,27,46,51.2211097,4.3997081,"Antwerp, Belgium",Antwerp,Belgium,BE,Belgium,Europe,,BE
28,28,45,46.6167284,13.8500268,"Villach, Carinthia, Austria",Villach,Austria,AT,Austria,Europe,,AT
29,29,44,31.2322758,121.4692071,"Shanghai, China",Shanghai,China,CN,China,Asia,,CN
30,30,44,51.4582235,7.0158171,"Essen, North Rhine-Westphalia, Germany",Essen,Germany,DE,Germany,Europe,,DE
31,31,44,48.8588897,2.3200410217200766,"Paris, Ile-de-France, France",Paris,France,FR,France,Europe,,FR
32,32,42,47.582996,12.1692134,"6330 Stadt Kufstein, Austria",Stadt Kufstein,Austria,AT,Austria,Europe,,AT
33,33,41,53.0758196,8.8071646,"Bremen, Free Hanseatic City of Bremen, Germany",Bremen,Germany,DE,Germany,Europe,,DE
34,34,41,50.1426423,8.5716274,"65760 Eschborn, Germany",Eschborn,Germany,DE,Germany,Europe,,DE
35,35,41,48.1565472,14.0243752,"4600 Wels, Austria",Wels,Austria,AT,Austria,Europe,,AT
36,36,40,51.5073219,-0.1276474,"London, ENG, United Kingdom",London,United Kingdom,GB,United Kingdom,Europe,,GB
37,37,40,46.623943,14.3075976,"Klagenfurt, Carinthia, Austria",Klagenfurt,Austria,AT,Austria,Europe,,AT
38,38,40,43.8519774,18.3866868,"City of Sarajevo, Sarajevo Canton, Bosnia and Herzegovina",City of Sarajevo,Bosnia and Herzegovina,BA,Bosnia and Herzegovina,Europe,,BA
39,39,39,45.84264135,15.962231476593626,"Zagreb, Croatia",Zagreb,Croatia,HR,Croatia,Europe,,HR
40,40,38,52.3657098,5.2210432,"Almere, FL, Netherlands",Almere,Netherlands,NL,Netherlands,Europe,,NL
41,41,38,23.9997558,90.4173629,"Gazipur - 1701, Bangladesh",Gazipur,Bangladesh,BD,Bangladesh,Asia,,BD
42,42,36,50.1106444,8.6820917,"Frankfurt, Hesse, Germany",Frankfurt,Germany,DE,Germany,Europe,,DE
43,43,36,51.1089776,17.0326689,"Wrocław, Lower Silesian Voivodeship, Poland",Wrocław,Poland,PL,Poland,Europe,,PL
44,44,36,45.5031824,-73.5698065,"Montreal, QC, Canada",Montreal,Canada,CA,Canada,North America,,CA
45,45,35,51.9625101,7.6251879,"Münster, North Rhine-Westphalia, Germany",Münster,Germany,DE,Germany,Europe,,DE
46,46,34,30.2489634,120.2052342,"Hangzhou City, Zhejiang, China",Hangzhou City,China,CN,China,Asia,,CN
47,47,34,51.1981778,6.6916476,"Neuss, North Rhine-Westphalia, Germany",Neuss,Germany,DE,Germany,Europe,,DE
48,48,34,49.4892913,8.4673098,"Mannheim, BW, Germany",Mannheim,Germany,DE,Germany,Europe,,DE
49,49,34,47.4250593,9.3765878,"St. Gallen, Wahlkreis St. Gallen, Switzerland",St. Gallen,Switzerland,CH,Switzerland,Europe,,CH
50,50,34,43.8976696,19.2782513,"Kragujevac, SRP, Bosnia and Herzegovina",Kragujevac,Bosnia and Herzegovina,BA,Bosnia and Herzegovina,Europe,,BA
51,51,34,24.8546842,67.0207055,"Karachi, SD, Pakistan",Karachi,Pakistan,PK,Pakistan,Asia,,PK
52,52,33,51.0493286,13.7381437,"Dresden, Saxony, Germany",Dresden,Germany,DE,Germany,Europe,,DE
53,53,33,51.3963509,12.2216292,"04435 Schkeuditz, Germany",Schkeuditz,Germany,DE,Germany,Europe,,DE
54,54,33,51.3414241,13.7345255,"01561 Linz, Germany",Linz,Germany,DE,Germany,Europe,,DE
55,55,32,51.4818111,7.2196635,"Bochum, North Rhine-Westphalia, Germany",Bochum,Germany,DE,Germany,Europe,,DE
56,56,32,50.0820384,8.2416556,"Wiesbaden, Hesse, Germany",Wiesbaden,Germany,DE,Germany,Europe,,DE
57,57,32,51.5142273,7.4652789,"Dortmund, North Rhine-Westphalia, Germany",Dortmund,Germany,DE,Germany,Europe,,DE
58,58,32,47.5025779,9.7472924,"Stadt Bregenz, Bezirk Bregenz, Austria",Stadt Bregenz,Austria,AT,Austria,Europe,,AT
59,59,31,48.3974003,9.9934336,"Ulm, BW, Germany",Ulm,Germany,DE,Germany,Europe,,DE
60,60,31,53.132398,23.1591679,"Białystok, Podlaskie Voivodeship, Poland",Białystok,Poland,PL,Poland,Europe,,PL
61,61,31,56.1379757,8.9746623,"7400 Herning, Denmark",Herning,Denmark,DK,Denmark,Europe,,DK
62,62,31,49.7596208,6.6441878,"Trier, Rhineland-Palatinate, Germany",Trier,Germany,DE,Germany,Europe,,DE
63,63,31,47.1113877,-101.42654,"Hannover, ND, United States of America",Hannover,United States,US,United States,North America,,US
64,64,30,51.4696137,6.8514435,"Oberhausen, North Rhine-Westphalia, Germany",Oberhausen,Germany,DE,Germany,Europe,,DE
65,65,30,55.7504461,37.6174943,"Moscow, Russia",Moscow,Russia,Unknown code,Russia,Europe,RUS,RUS
66,66,29,52.0191005,8.531007,"Bielefeld, North Rhine-Westphalia, Germany",Bielefeld,Germany,DE,Germany,Europe,,DE
67,67,29,49.0068705,8.4034195,"Karlsruhe, BW, Germany",Karlsruhe,Germany,DE,Germany,Europe,,DE
68,68,29,48.3668041,10.8986971,"Augsburg, Bavaria, Germany",Augsburg,Germany,DE,Germany,Europe,,DE
69,69,28,49.453872,11.077298,"Nuremberg, Bavaria, Germany",Nuremberg,Germany,DE,Germany,Europe,,DE
70,70,28,54.3846451,9.9034272,"Lindau, SH, Germany",Lindau,Germany,DE,Germany,Europe,,DE
71,71,26,54.3482908,18.6540231,"Gdansk, Pomeranian Voivodeship, Poland",Gdansk,Poland,PL,Poland,Europe,,PL
72,72,26,48.5917673,10.9595805,"86674 Baar, Germany",Baar,Germany,DE,Germany,Europe,,DE
73,73,26,50.1106444,8.6820917,"Frankfurt, Hesse, Germany",Frankfurt,Germany,DE,Germany,Europe,,DE
74,74,26,47.3046511,11.071515,"6410 Marktgemeinde Telfs, Austria",Marktgemeinde Telfs,Austria,AT,Austria,Europe,,AT
75,75,25,50.735851,7.10066,"Bonn, North Rhine-Westphalia, Germany",Bonn,Germany,DE,Germany,Europe,,DE
76,76,25,46.2432635,14.3549501,"Kranj, Slovenia",Kranj,Slovenia,SI,Slovenia,Europe,,SI
77,77,25,46.0500268,14.5069289,"Ljubljana, Slovenia",Ljubljana,Slovenia,SI,Slovenia,Europe,,SI
78,78,25,50.8322608,12.9252977,"Chemnitz, Saxony, Germany",Chemnitz,Germany,DE,Germany,Europe,,DE
79,79,25,50.776351,6.083862,"Aachen, North Rhine-Westphalia, Germany",Aachen,Germany,DE,Germany,Europe,,DE
80,80,24,51.9913559,9.5634922,"37620 Halle, Germany",Halle,Germany,DE,Germany,Europe,,DE
81,81,24,53.1389753,8.2146017,"Oldenburg, Lower Saxony, Germany",Oldenburg,Germany,DE,Germany,Europe,,DE
82,82,24,52.2719595,8.047635,"Osnabrück, Lower Saxony, Germany",Osnabrück,Germany,DE,Germany,Europe,,DE
83,83,24,48.5397247,9.2831201,"72555 Metzingen, Germany",Metzingen,Germany,DE,Germany,Europe,,DE
84,84,24,46.9482713,7.4514512,"Bern, Bern-Mittelland, Switzerland",Bern,Switzerland,CH,Switzerland,Europe,,CH
85,85,24,52.5496739,4.6696185,"Castricum, North Holland, Netherlands",Castricum,Netherlands,NL,Netherlands,Europe,,NL
86,86,24,52.3727598,4.8936041,"Amsterdam, North Holland, Netherlands",Amsterdam,Netherlands,NL,Netherlands,Europe,,NL
87,87,24,52.37025,5.21413,"Almere Stad, FL, Netherlands",Almere Stad,Netherlands,NL,Netherlands,Europe,,NL
88,88,23,43.3435855,17.8076584,"88000 Mostar, Bosnia and Herzegovina",Mostar,Bosnia and Herzegovina,BA,Bosnia and Herzegovina,Europe,,BA
89,89,23,46.82958615,12.750316209629112,"9900 Stadt Lienz, Austria",Stadt Lienz,Austria,AT,Austria,Europe,,AT
90,90,23,47.413631,9.7423875,"Stadt Dornbirn, Vorarlberg, Austria",Stadt Dornbirn,Austria,AT,Austria,Europe,,AT
91,91,23,52.2646577,10.5236066,"Brunswick, Lower Saxony, Germany",Brunswick,Germany,DE,Germany,Europe,,DE
92,92,23,53.866444,10.684738,"Lübeck, SH, Germany",Lübeck,Germany,DE,Germany,Europe,,DE
93,93,23,49.9740542,9.1493636,"Aschaffenburg, Bavaria, Germany",Aschaffenburg,Germany,DE,Germany,Europe,,DE
94,94,22,51.434999,6.759562,"Duisburg, North Rhine-Westphalia, Germany",Duisburg,Germany,DE,Germany,Europe,,DE
95,95,22,48.7630165,11.4250395,"Ingolstadt, Bavaria, Germany",Ingolstadt,Germany,DE,Germany,Europe,,DE
96,96,22,44.8133048,20.4183382,"New Belgrade, Central Serbia, Serbia",,Serbia,RS,Serbia,Europe,,RS
97,97,22,49.234362,6.996379,"Saarbrücken, SL, Germany",Saarbrücken,Germany,DE,Germany,Europe,,DE
98,98,22,47.1679898,8.5173652,"Zug, ZG, Switzerland",Zug,Switzerland,CH,Switzerland,Europe,,CH
99,99,22,53.7089898,9.9891914,"Norderstedt, SH, Germany",Norderstedt,Germany,DE,Germany,Europe,,DE
100,100,21,48.2043985,15.6229118,"St. Pölten, Lower Austria, Austria",St. Pölten,Austria,AT,Austria,Europe,,AT
101,101,21,47.5581077,7.5878261,"Basel, Basel-City, Switzerland",Basel,Switzerland,CH,Switzerland,Europe,,CH
102,102,21,50.0499945,10.233302,"Schweinfurt, Bavaria, Germany",Schweinfurt,Germany,DE,Germany,Europe,,DE
103,103,21,48.7613928,10.636845,"Schaffhausen, Bavaria, Germany",Schaffhausen,Germany,DE,Germany,Europe,,DE
104,104,21,31.5656822,74.3141829,"Lahore 54010, Pakistan",Lahore,Pakistan,PK,Pakistan,Asia,,PK
105,105,20,51.6804093,7.815197,"Hamm, North Rhine-Westphalia, Germany",Hamm,Germany,DE,Germany,Europe,,DE
106,106,20,53.248706,10.407855,"Lüneburg, Lower Saxony, Germany",Lüneburg,Germany,DE,Germany,Europe,,DE
107,107,20,51.3154546,9.4924096,"Kassel, Hesse, Germany",Kassel,Germany,DE,Germany,Europe,,DE
108,108,20,51.7177044,8.752653,"Paderborn, North Rhine-Westphalia, Germany",Paderborn,Germany,DE,Germany,Europe,,DE
109,109,20,51.59248,27.46822,"Sarny Raion, Poznan, Rivne Oblast, Ukraine",Poznan,Ukraine,UA,Ukraine,Europe,,UA
110,110,20,46.5576439,15.6455854,"Maribor, Slovenia",Maribor,Slovenia,SI,Slovenia,Europe,,SI
111,111,19,50.8749804,8.0227233,"Siegen, North Rhine-Westphalia, Germany",Siegen,Germany,DE,Germany,Europe,,DE
112,112,19,54.1745029,10.0700752,"Brügge, SH, Germany",Brügge,Germany,DE,Germany,Europe,,DE
114,114,19,54.3227085,10.135555,"Kiel, SH, Germany",Kiel,Germany,DE,Germany,Europe,,DE
115,115,19,43.5116383,16.4399659,"Split, Split-Dalmatia County, Croatia",Split,Croatia,HR,Croatia,Europe,,HR
116,116,19,50.2267699,8.6169093,"Bad Homburg vor der Höhe, Hesse, Germany",Bad Homburg vor der Höhe,Germany,DE,Germany,Europe,,DE
117,117,19,47.9960901,7.8494005,"Freiburg im Breisgau, BW, Germany",Freiburg im Breisgau,Germany,DE,Germany,Europe,,DE
118,118,19,51.1946983,6.4353641,"Mönchengladbach, North Rhine-Westphalia, Germany",Mönchengladbach,Germany,DE,Germany,Europe,,DE
119,119,19,48.8908846,8.7029532,"Pforzheim, BW, Germany",Pforzheim,Germany,DE,Germany,Europe,,DE
120,120,18,48.0390046,14.4191276,"4400 Steyr, Austria",Steyr,Austria,AT,Austria,Europe,,AT
121,121,18,43.3211301,21.8959232,"Niš, Nisava Administrative District, Serbia",Niš,Serbia,RS,Serbia,Europe,,RS
122,122,18,51.264018,7.1780374,"Wuppertal, North Rhine-Westphalia, Germany",Wuppertal,Germany,DE,Germany,Europe,,DE
123,123,18,51.3582945,7.473296,"Hagen, North Rhine-Westphalia, Germany",Hagen,Germany,DE,Germany,Europe,,DE
124,124,18,47.3805128,15.0947756,"Leoben, Bezirk Leoben, Austria",Leoben,Austria,AT,Austria,Europe,,AT
125,125,18,50.9810486,11.3296637,"Weimar, Thuringia, Germany",Weimar,Germany,DE,Germany,Europe,,DE
126,126,18,52.5122154,13.4502904,"Friedrichshain, Berlin, Germany",Berlin,Germany,DE,Germany,Europe,,DE
127,127,18,50.3533278,7.5943951,"Koblenz, Rhineland-Palatinate, Germany",Koblenz,Germany,DE,Germany,Europe,,DE
128,128,17,47.8131847,16.2441166,"Wiener Neustadt, Lower Austria, Austria",Wiener Neustadt,Austria,AT,Austria,Europe,,AT
129,129,17,48.1516988,17.1093063,"Bratislava, Slovakia",Bratislava,Slovakia,SK,Slovakia,Europe,,SK
130,130,17,52.1521636,9.9513046,"Hildesheim, Lower Saxony, Germany",Hildesheim,Germany,DE,Germany,Europe,,DE
131,131,17,49.4432174,7.7689951,"Kaiserslautern, Rhineland-Palatinate, Germany",Kaiserslautern,Germany,DE,Germany,Europe,,DE
132,132,17,48.5748229,13.4609744,"Passau, Bavaria, Germany",Passau,Germany,DE,Germany,Europe,,DE
133,133,17,50.8772301,12.0796208,"Gera, Thuringia, Germany",Gera,Germany,DE,Germany,Europe,,DE
134,134,17,50.8465573,4.351697,"Brussels, Brussels-Capital, Belgium",Brussels,Belgium,BE,Belgium,Europe,,BE
135,135,17,49.79245,9.932966,"Würzburg, Bavaria, Germany",Würzburg,Germany,DE,Germany,Europe,,DE
136,136,17,50.9593636,4.2335677,"1785 Merchtem, Belgium",Merchtem,Belgium,BE,Belgium,Europe,,BE
137,137,17,47.8647485,7.2730686,"68540 Feldkirch, France",Feldkirch,France,FR,France,Europe,,FR
138,138,17,51.3331205,6.5623343,"Krefeld, North Rhine-Westphalia, Germany",Krefeld,Germany,DE,Germany,Europe,,DE
139,139,17,50.5542328,9.6770448,"Fulda, Hesse, Germany",Fulda,Germany,DE,Germany,Europe,,DE
140,140,17,51.4002384,8.0605908,"Arnsberg, North Rhine-Westphalia, Germany",Arnsberg,Germany,DE,Germany,Europe,,DE
141,141,17,50.0012314,8.2762513,"Mainz, Rhineland-Palatinate, Germany",Mainz,Germany,DE,Germany,Europe,,DE
142,142,16,51.2973261,6.8493503,"Ratingen, North Rhine-Westphalia, Germany",Ratingen,Germany,DE,Germany,Europe,,DE
143,143,16,47.3449529,11.7084253,"6130 Schwaz, Austria",Schwaz,Austria,AT,Austria,Europe,,AT
144,144,16,47.5561915,8.8963347,"Frauenfeld, Bezirk Frauenfeld, Switzerland",Frauenfeld,Switzerland,CH,Switzerland,Europe,,CH
145,145,16,51.3424633,9.0829255,"Landau, Hesse, Germany",Landau,Germany,DE,Germany,Europe,,DE
146,146,16,51.7306922,6.590865,"46499 Hamminkeln, Germany",Hamminkeln,Germany,DE,Germany,Europe,,DE
147,147,16,50.132881,8.9169797,"Hanau, Hesse, Germany",Hanau,Germany,DE,Germany,Europe,,DE
148,148,16,47.0505452,8.3054682,"Lucerne, Switzerland",Lucerne,Switzerland,CH,Switzerland,Europe,,CH
149,149,16,49.4454211,11.858728,"92224 Amberg, Germany",Amberg,Germany,DE,Germany,Europe,,DE
150,150,16,49.4093582,8.694724,"Heidelberg, BW, Germany",Heidelberg,Germany,DE,Germany,Europe,,DE
151,151,16,50.9777974,11.0287364,"Erfurt, Thuringia, Germany",Erfurt,Germany,DE,Germany,Europe,,DE
152,152,16,36.6497833,-91.8482044,"Cottbus, MO, United States of America",Cottbus,United States,US,United States,North America,,US
153,153,16,48.3633004,19.5083739,"Praha, Lučenec, Slovakia",Praha,Slovakia,SK,Slovakia,Europe,,SK
154,154,16,47.2861513,16.2124214,"7400 Oberwart/Felsőőr, Austria",Oberwart/Felsőőr,Austria,AT,Austria,Europe,,AT
155,155,16,52.1315889,11.6399609,"Magdeburg, Saxony-Anhalt, Germany",Magdeburg,Germany,DE,Germany,Europe,,DE
156,156,15,47.7267063,10.3168835,"Kempten (Allgäu), Bavaria, Germany",Kempten (Allgäu),Germany,DE,Germany,Europe,,DE
157,157,15,50.8031684,6.4820806,"Duren, North Rhine-Westphalia, Germany",Duren,Germany,DE,Germany,Europe,,DE
158,158,15,47.4736827,8.3086822,"Baden, Bezirk Baden, Switzerland",Baden,Switzerland,CH,Switzerland,Europe,,CH
159,159,15,53.5278793,8.106301,"Wilhelmshaven, Lower Saxony, Germany",Wilhelmshaven,Germany,DE,Germany,Europe,,DE
160,160,15,51.2211097,4.3997081,"Antwerp, Belgium",Antwerp,Belgium,BE,Belgium,Europe,,BE
161,161,15,48.7031377,9.6541116,"Göppingen, BW, Germany",Göppingen,Germany,DE,Germany,Europe,,DE
162,162,15,45.3267976,14.442208,"51000 Rijeka, Croatia",Rijeka,Croatia,HR,Croatia,Europe,,HR
163,163,15,47.7372802,8.9702755,"78315 Radolfzell am Bodensee, Germany",Radolfzell am Bodensee,Germany,DE,Germany,Europe,,DE
164,164,15,47.0467333,9.4192932,"Mels, Wahlkreis Sarganserland, Switzerland",Mels,Switzerland,CH,Switzerland,Europe,,CH
165,165,15,43.58264,21.3264811,"City of Kruševac, Rasina Administrative District, Serbia",City of Kruševac,Serbia,RS,Serbia,Europe,,RS
166,166,15,47.4168029,13.2170933,"5500 Bischofshofen, Austria",Bischofshofen,Austria,AT,Austria,Europe,,AT
167,167,15,48.2085868,13.48839,"4910 Ried im Innkreis, Austria",Ried im Innkreis,Austria,AT,Austria,Europe,,AT
168,168,15,48.0078587,13.6460378,"4840 Vöcklabruck, Austria",Vöcklabruck,Austria,AT,Austria,Europe,,AT
169,169,15,48.4919508,9.2114144,"Reutlingen, BW, Germany",Reutlingen,Germany,DE,Germany,Europe,,DE
170,170,14,53.5574458,13.2602781,"Neubrandenburg, MV, Germany",Neubrandenburg,Germany,DE,Germany,Europe,,DE
171,171,14,48.7999036,9.7977584,"Schwäbisch Gmünd, BW, Germany",Schwäbisch Gmünd,Germany,DE,Germany,Europe,,DE
172,172,14,54.0847618,9.9626567,"Neumünster, SH, Germany",Neumünster,Germany,DE,Germany,Europe,,DE
173,173,14,48.8819801,12.569716,"94315 Straubing, Germany",Straubing,Germany,DE,Germany,Europe,,DE
174,174,14,48.536217,12.1516551,"Landshut, Bavaria, Germany",Landshut,Germany,DE,Germany,Europe,,DE
175,175,14,48.4114852,12.879332,"Österreich, Postmünster, Bavaria, Germany",Postmünster,Germany,DE,Germany,Europe,,DE
176,176,14,49.1123963,9.7369047,"74523 Schwäbisch Hall, Germany",Schwäbisch Hall,Germany,DE,Germany,Europe,,DE
177,177,14,47.567685,14.2420508,"8940 Liezen, Austria",Liezen,Austria,AT,Austria,Europe,,AT
178,178,14,46.854747,9.5264904,"Chur, Plessur, Switzerland",Chur,Switzerland,CH,Switzerland,Europe,,CH
179,179,14,52.6947452,7.2909824,"49716 Meppen, Germany",Meppen,Germany,DE,Germany,Europe,,DE
180,180,14,47.7115299,13.6239333,"4820 Bad Ischl, Austria",Bad Ischl,Austria,AT,Austria,Europe,,AT
181,181,14,51.6143815,7.1978546,"Recklinghausen, North Rhine-Westphalia, Germany",Recklinghausen,Germany,DE,Germany,Europe,,DE
182,182,14,49.142291,9.218655,"Heilbronn, BW, Germany",Heilbronn,Germany,DE,Germany,Europe,,DE
183,183,14,49.5928616,11.0056,"Erlangen, Bavaria, Germany",Erlangen,Germany,DE,Germany,Europe,,DE
184,184,14,49.248655,7.3641981,"66482 Zweibrücken, Germany",Zweibrücken,Germany,DE,Germany,Europe,,DE
185,185,14,51.6335588,14.5171765,"Hornow - Lěšće, Spremberg, BB, Germany",Spremberg,Germany,DE,Germany,Europe,,DE
186,186,14,42.6977028,23.3217359,"Sofia, Sofia-City, Bulgaria",Sofia,Bulgaria,BG,Bulgaria,Europe,,BG
187,187,14,52.4009309,13.0591397,"Potsdam, BB, Germany",Potsdam,Germany,DE,Germany,Europe,,DE
188,188,14,51.0324743,6.9881194,"Leverkusen, North Rhine-Westphalia, Germany",Leverkusen,Germany,DE,Germany,Europe,,DE
189,189,14,49.0177528,10.7421856,"91719 Heidenheim, Germany",Heidenheim,Germany,DE,Germany,Europe,,DE
190,190,14,51.4392648,5.478633,"Eindhoven, North Brabant, Netherlands",Eindhoven,Netherlands,NL,Netherlands,Europe,,NL
191,191,14,50.5456179,8.1025344,"Neunkirchen, Rhineland-Palatinate, Germany",Neunkirchen,Germany,DE,Germany,Europe,,DE
192,192,13,50.350573,7.05033,"Baar, Rhineland-Palatinate, Germany",Baar,Germany,DE,Germany,Europe,,DE
193,193,13,31.9827896,120.8904588,"Nantong, Jiangsu, China",Nantong,China,CN,China,Asia,,CN
194,194,13,51.1721629,7.0845893,"Solingen, North Rhine-Westphalia, Germany",Solingen,Germany,DE,Germany,Europe,,DE
195,195,13,47.3351291,9.6440092,"6840 Götzis, Austria",Götzis,Austria,AT,Austria,Europe,,AT
196,196,13,47.4068827,8.4020894,"8953 Dietikon, Switzerland",Dietikon,Switzerland,CH,Switzerland,Europe,,CH
197,197,13,43.80239875,18.42884459230194,"Istočno Novo Sarajevo Municipality, City of Istočno Sarajevo, Bosnia and Herzegovina",Istočno Novo Sarajevo Municipality,Bosnia and Herzegovina,BA,Bosnia and Herzegovina,Europe,,BA
198,198,13,47.3940415,13.6867878,"8970 Schladming, Austria",Schladming,Austria,AT,Austria,Europe,,AT
199,199,13,50.5862066,8.6742306,"Gießen, Hesse, Germany",Gießen,Germany,DE,Germany,Europe,,DE
200,200,13,47.153037,9.8219314,"6700 Stadt Bludenz, Austria",Stadt Bludenz,Austria,AT,Austria,Europe,,AT
201,201,13,50.2397846,11.3277669,"96317 Kronach, Germany",Kronach,Germany,DE,Germany,Europe,,DE
202,202,13,49.7614982,9.5155411,"97877 Wertheim, Germany",Wertheim,Germany,DE,Germany,Europe,,DE
203,203,13,49.0195333,12.0974869,"Regensburg, Bavaria, Germany",Regensburg,Germany,DE,Germany,Europe,,DE
204,204,13,47.7999765,11.5748017,"Kirchbichl, 83646 Bad Tölz, Germany",Bad Tölz,Germany,DE,Germany,Europe,,DE
205,205,13,51.1674417,6.9307271,"Hilden, North Rhine-Westphalia, Germany",Hilden,Germany,DE,Germany,Europe,,DE
206,206,12,46.1302879,14.556192,"1236 Trzin, Slovenia",Trzin,Slovenia,SI,Slovenia,Europe,,SI
207,207,12,50.9747134,10.3193565,"99817 Eisenach, Germany",Eisenach,Germany,DE,Germany,Europe,,DE
208,208,12,39.744526,98.5072987,"Suzhou District, Suzhou, Gansu, China",Suzhou,China,CN,China,Asia,,CN
209,209,12,54.0924445,12.1286127,"Rostock, MV, Germany",Rostock,Germany,DE,Germany,Europe,,DE
210,210,12,47.2809371,15.9691769,"8230 Hartberg, Austria",Hartberg,Austria,AT,Austria,Europe,,AT
211,211,12,48.119332150000005,16.33681024565208,"Gemeinde Vösendorf, Bezirk Mödling, Austria",Gemeinde Vösendorf,Austria,AT,Austria,Europe,,AT
212,212,12,44.7402211,16.9753564,"Subotica, City of Banja Luka, Bosnia and Herzegovina",Subotica,Bosnia and Herzegovina,BA,Bosnia and Herzegovina,Europe,,BA
213,213,12,50.5525346,8.5074406,"Wetzlar, Hesse, Germany",Wetzlar,Germany,DE,Germany,Europe,,DE
214,214,12,47.2759021,10.700690365218966,"6460 Stadt Imst, Austria",Stadt Imst,Austria,AT,Austria,Europe,,AT
215,215,12,51.5623618,6.7345106,"Dinslaken, North Rhine-Westphalia, Germany",Dinslaken,Germany,DE,Germany,Europe,,DE
216,216,12,48.0632359,8.4945022,"Villingen-Schwenningen, BW, Germany",Villingen-Schwenningen,Germany,DE,Germany,Europe,,DE
217,217,12,52.4205588,10.7861682,"Wolfsburg, Lower Saxony, Germany",Wolfsburg,Germany,DE,Germany,Europe,,DE
218,218,12,49.8431642,7.8657658,"Bad Kreuznach, Rhineland-Palatinate, Germany",Bad Kreuznach,Germany,DE,Germany,Europe,,DE
219,219,12,49.4772475,10.9893626,"Fürth, Bavaria, Germany",Fürth,Germany,DE,Germany,Europe,,DE
220,220,12,46.3684202,14.1100595,"4260 Bled, Slovenia",Bled,Slovenia,SI,Slovenia,Europe,,SI
221,221,12,50.4492865,6.6829919,"Mülheim, North Rhine-Westphalia, Germany",Mülheim,Germany,DE,Germany,Europe,,DE
222,222,12,16.7967129,96.1609916,"Yangon, Myanmar",Yangon,Myanmar,MM,Myanmar,Asia,,MM
223,223,12,29.9992425,120.576854,"Shaoxing, Zhejiang, China",Shaoxing,China,CN,China,Asia,,CN
224,224,12,47.3469156,11.852773301751128,"Gemeinde Fügen, Bezirk Schwaz, Austria",Gemeinde Fügen,Austria,AT,Austria,Europe,,AT
225,225,12,47.5932802,7.6116133,"79576 Weil am Rhein, Germany",Weil am Rhein,Germany,DE,Germany,Europe,,DE
226,226,12,11.0968195,-2.9290149,"Koper, Ioba, Burkina Faso",Koper,Burkina Faso,BF,Burkina Faso,Africa,,BF
227,227,12,51.9063997,8.3782078,"Gütersloh, North Rhine-Westphalia, Germany",Gütersloh,Germany,DE,Germany,Europe,,DE
228,228,12,47.1672188,11.8638664,"Marktgemeinde Mayrhofen, Bezirk Schwaz, Austria",Marktgemeinde Mayrhofen,Austria,AT,Austria,Europe,,AT
229,229,12,51.6747074,8.347194,"Lippstadt, North Rhine-Westphalia, Germany",Lippstadt,Germany,DE,Germany,Europe,,DE
230,230,12,49.8851869,8.6736295,"Darmstadt, Hesse, Germany",Darmstadt,Germany,DE,Germany,Europe,,DE
231,231,12,47.8539273,12.127262,"Rosenheim, Bavaria, Germany",Rosenheim,Germany,DE,Germany,Europe,,DE
232,232,12,51.8438893,4.635647,"Hendrik-Ido-Ambacht, South Holland, Netherlands",Hendrik-Ido-Ambacht,Netherlands,NL,Netherlands,Europe,,NL
233,233,12,48.8574209,8.2088088,"76437 Rastatt, Germany",Rastatt,Germany,DE,Germany,Europe,,DE
234,234,12,40.4167047,-3.7035825,"Madrid, Spain",Madrid,Spain,ES,Spain,Europe,,ES
235,235,11,52.4359731,7.0707659,"Nordhorn, Lower Saxony, Germany",Nordhorn,Germany,DE,Germany,Europe,,DE
236,236,11,49.7455695,8.1150946,"Alzey, Rhineland-Palatinate, Germany",Alzey,Germany,DE,Germany,Europe,,DE
237,237,11,52.2976447,-2.9319832,"Lingen, Herefordshire, ENG, United Kingdom",Lingen,United Kingdom,GB,United Kingdom,Europe,,GB
238,238,11,46.6604246,14.6340505,"9100 Völkermarkt, Austria",Völkermarkt,Austria,AT,Austria,Europe,,AT
240,240,11,49.3164661,6.749846,"66740 Saarlouis, Germany",Saarlouis,Germany,DE,Germany,Europe,,DE
241,241,11,43.6534817,-79.3839347,"Old Toronto, ON, Canada",Old Toronto,Canada,CA,Canada,North America,,CA
242,242,11,47.7811014,9.612468,"Ravensburg, BW, Germany",Ravensburg,Germany,DE,Germany,Europe,,DE
243,243,11,48.9397149,8.40427,"76275 Ettlingen, Germany",Ettlingen,Germany,DE,Germany,Europe,,DE
244,244,11,47.5224141,12.4286809,"6380 Marktgemeinde St. Johann in Tirol, Austria",Marktgemeinde St. Johann in Tirol,Austria,AT,Austria,Europe,,AT
245,245,11,52.2797707,7.4373615,"Rheine, North Rhine-Westphalia, Germany",Rheine,Germany,DE,Germany,Europe,,DE
246,246,11,48.1998671,12.6233304,"Krems, Tüßling, Bavaria, Germany",Tüßling,Germany,DE,Germany,Europe,,DE
247,247,11,41.3828939,2.1774322,"08001 Barcelona, Spain",Barcelona,Spain,ES,Spain,Europe,,ES
248,248,11,22.2793278,114.1628131,"Hong Kong Island, Hong Kong, China",Hong Kong Island,China,CN,China,Asia,,CN
249,249,11,50.5545674,6.7636511,"53902 Bad Münstereifel, Germany",Bad Münstereifel,Germany,DE,Germany,Europe,,DE
250,250,11,52.5089759,6.0943765,"Zwolle, OV, Netherlands",Zwolle,Netherlands,NL,Netherlands,Europe,,NL
251,251,11,49.4669906,7.1696192,"66606 Sankt Wendel, Germany",Sankt Wendel,Germany,DE,Germany,Europe,,DE
252,252,11,51.8382715,6.6148669,"Bocholt, North Rhine-Westphalia, Germany",Bocholt,Germany,DE,Germany,Europe,,DE
253,253,11,23.1301964,113.2592945,"Guangzhou City, Guangdong Province, China",Guangzhou City,China,CN,China,Asia,,CN
254,254,11,49.0337401,10.3916601,"91634 Limburg, Germany",Limburg,Germany,DE,Germany,Europe,,DE
255,255,11,49.6112768,6.129799,"Luxembourg, Canton Luxembourg",Luxembourg,Luxembourg,LU,Luxembourg,Europe,,LU
256,256,11,47.0047875,15.394198241769864,"Seiersberg-Pirka, Bezirk Graz-Umgebung, Austria",Seiersberg-Pirka,Austria,AT,Austria,Europe,,AT
257,257,11,29.8622194,121.6203873,"Ningbo, Zhejiang, China",Ningbo,China,CN,China,Asia,,CN
258,258,11,53.550341,10.000654,"Hamburg, Germany",Hamburg,Germany,DE,Germany,Europe,,DE
259,259,11,48.2576453,14.2044214,"4061 Pasching, Austria",Pasching,Austria,AT,Austria,Europe,,AT
260,260,11,47.1286095,8.7500299,"8840 Einsiedeln, Switzerland",Einsiedeln,Switzerland,CH,Switzerland,Europe,,CH
261,261,11,13.0836939,80.270186,"Chennai - 600001, TN, India",Chennai,India,IN,India,Asia,,IN
262,262,11,50.3769053,7.0918196,"Langenfeld, Rhineland-Palatinate, Germany",Langenfeld,Germany,DE,Germany,Europe,,DE
263,263,11,50.9494849,10.7014435,"99867 Gotha, Germany",Gotha,Germany,DE,Germany,Europe,,DE
264,264,11,47.687609,17.6346815,"Gyor, Győr-Moson-Sopron, Hungary",Gyor,Hungary,HU,Hungary,Europe,,HU
265,265,11,49.2178194,12.6663832,"93413 Cham, Germany",Cham,Germany,DE,Germany,Europe,,DE
266,266,11,47.2073941,14.6779341,"8753 Fohnsdorf, Austria",Fohnsdorf,Austria,AT,Austria,Europe,,AT
267,267,11,51.5110321,7.0960124,"Gelsenkirchen, North Rhine-Westphalia, Germany",Gelsenkirchen,Germany,DE,Germany,Europe,,DE
268,268,11,48.5512399,8.7234942,"72202 Nagold, Germany",Nagold,Germany,DE,Germany,Europe,,DE
269,269,10,52.2,8.05,"49124 Georgsmarienhütte, Germany",Georgsmarienhütte,Germany,DE,Germany,Europe,,DE
270,270,10,47.28919,8.7096296,"8133 Esslingen, Switzerland",Esslingen,Switzerland,CH,Switzerland,Europe,,CH
271,271,10,46.343509,14.1720227,"Radovljica, Slovenia",Radovljica,Slovenia,SI,Slovenia,Europe,,SI
272,272,10,24.5167811,117.3523949,"Nanjing, Nanjing County, China",Nanjing,China,CN,China,Asia,,CN
273,273,10,52.1039941,9.3561569,"Hamelin, Lower Saxony, Germany",Hamelin,Germany,DE,Germany,Europe,,DE
274,274,10,47.4166195,8.5919985,"Wallisellen, Bezirk Bülach, Switzerland",Wallisellen,Switzerland,CH,Switzerland,Europe,,CH
275,275,10,54.7833021,9.4333264,"Flensburg, SH, Germany",Flensburg,Germany,DE,Germany,Europe,,DE
276,276,10,51.0277658,7.5630545,"Gummersbach, North Rhine-Westphalia, Germany",Gummersbach,Germany,DE,Germany,Europe,,DE
277,277,10,52.0280674,8.9012894,"32657 Lemgo, Germany",Lemgo,Germany,DE,Germany,Europe,,DE
278,278,10,52.8461339,8.0438783,"49661 Cloppenburg, Germany",Cloppenburg,Germany,DE,Germany,Europe,,DE
279,279,10,52.443118,9.738994,"Langenhagen, Lower Saxony, Germany",Langenhagen,Germany,DE,Germany,Europe,,DE
280,280,10,47.9867696,10.181319,"87700 Memmingen, Germany",Memmingen,Germany,DE,Germany,Europe,,DE
281,281,10,48.1475774,11.7299205,"85622 Feldkirchen, Germany",Feldkirchen,Germany,DE,Germany,Europe,,DE
282,282,10,50.9059283,3.4038085,"Waregem, Kortrijk, Belgium",Waregem,Belgium,BE,Belgium,Europe,,BE
283,283,10,51.1425944,9.5833158,"34212 Melsungen, Germany",Melsungen,Germany,DE,Germany,Europe,,DE
284,284,10,47.3927146,8.0444448,"5000 Aarau, Switzerland",Aarau,Switzerland,CH,Switzerland,Europe,,CH
285,285,10,22.5445741,114.0545429,"Shenzhen, Guangdong Province, China",Shenzhen,China,CN,China,Asia,,CN
286,286,10,52.0907006,5.1215634,"Utrecht, UT, Netherlands",Utrecht,Netherlands,NL,Netherlands,Europe,,NL
287,287,10,47.8177978,9.056572,"78351 Ludwigshafen, Germany",Ludwigshafen,Germany,DE,Germany,Europe,,DE
288,288,10,50.8291313,6.9037057,"50321 Brühl, Germany",Brühl,Germany,DE,Germany,Europe,,DE
289,289,10,51.7430516,7.187221,"45721 Haltern am See, Germany",Haltern am See,Germany,DE,Germany,Europe,,DE
290,290,10,48.684969,9.0113444,"Böblingen, BW, Germany",Böblingen,Germany,DE,Germany,Europe,,DE
291,291,10,53.6736529,10.2358999,"22926 Ahrensburg, Germany",Ahrensburg,Germany,DE,Germany,Europe,,DE
292,292,10,-6.1761924,106.6382161,"Tangerang 15119, Banten, Indonesia",Tangerang,Indonesia,ID,Indonesia,Asia,,ID
293,293,10,53.8909832,11.4647932,"Wismar, MV, Germany",Wismar,Germany,DE,Germany,Europe,,DE
294,294,10,41.0091982,28.9662187,"34126 Istanbul, Turkey",Istanbul,Turkey,TR,Turkey,Asia,,TR
295,295,10,46.343509,14.1720227,"Radovljica, Slovenia",Radovljica,Slovenia,SI,Slovenia,Europe,,SI
296,296,10,46.7582827,7.628086,"Thun, Switzerland",Thun,Switzerland,CH,Switzerland,Europe,,CH
297,297,10,54.6870458,25.2829111,"Vilnius, Vilnius city municipality, Lithuania",Vilnius,Lithuania,LT,Lithuania,Europe,,LT
298,298,10,50.4950632,12.1346523,"Plauen, Saxony, Germany",Plauen,Germany,DE,Germany,Europe,,DE
299,299,10,49.5401174,8.5788029,"68519 Viernheim, Germany",Viernheim,Germany,DE,Germany,Europe,,DE
300,300,10,51.218116,7.6395513,"Lüdenscheid, North Rhine-Westphalia, Germany",Lüdenscheid,Germany,DE,Germany,Europe,,DE
301,301,10,51.2527778,6.9777778,"40822 Mettmann, Germany",Mettmann,Germany,DE,Germany,Europe,,DE
302,302,10,47.8454821,16.5249288,"7000 Eisenstadt, Austria",Eisenstadt,Austria,AT,Austria,Europe,,AT
303,303,10,48.59408205,16.46729802018777,"2151 Gemeinde Asparn an der Zaya, Austria",Gemeinde Asparn an der Zaya,Austria,AT,Austria,Europe,,AT
304,304,10,47.4991723,8.7291498,"Winterthur, Bezirk Winterthur, Switzerland",Winterthur,Switzerland,CH,Switzerland,Europe,,CH
305,305,10,52.6736091,11.9849832,"Bürs, 39596 Arneburg, Germany",Arneburg,Germany,DE,Germany,Europe,,DE
306,306,9,51.6335588,14.5171765,"Hornow - Lěšće, Spremberg, BB, Germany",Spremberg,Germany,DE,Germany,Europe,,DE
307,307,9,44.1168594,15.2353257,"Zadar, Zadar County, Croatia",Zadar,Croatia,HR,Croatia,Europe,,HR
308,308,9,51.829379,12.2236,"Dessau, Saxony-Anhalt, Germany",Dessau,Germany,DE,Germany,Europe,,DE
309,309,9,48.4320329,12.9386266,"84347 Pfarrkirchen, Germany",Pfarrkirchen,Germany,DE,Germany,Europe,,DE
310,310,9,48.3243749,10.0468113,"89250 Senden, Germany",Senden,Germany,DE,Germany,Europe,,DE
311,311,9,51.2516344,4.4980446,"2900 Schoten, Belgium",Schoten,Belgium,BE,Belgium,Europe,,BE
312,312,9,50.4362219,7.8302494,"Montabaur, Rhineland-Palatinate, Germany",Montabaur,Germany,DE,Germany,Europe,,DE
313,313,9,46.2293889,15.2616828,"Celje, Slovenia",Celje,Slovenia,SI,Slovenia,Europe,,SI
314,314,9,45.5548793,18.6953685,"Osijek, Osijek-Baranja County, Croatia",Osijek,Croatia,HR,Croatia,Europe,,HR
315,315,9,44.7720845,17.1917651,"78000 Banja Luka, Bosnia and Herzegovina",Banja Luka,Bosnia and Herzegovina,BA,Bosnia and Herzegovina,Europe,,BA
316,316,9,48.2886289,8.8135495,"72351 Geislingen, Germany",Geislingen,Germany,DE,Germany,Europe,,DE
318,318,9,47.38555,9.2787571,"Herisau, Hinterland, Switzerland",Herisau,Switzerland,CH,Switzerland,Europe,,CH
319,319,9,50.0619474,19.9368564,"Krakow, Lesser Poland Voivodeship, Poland",Krakow,Poland,PL,Poland,Europe,,PL
320,320,9,49.6560775,9.8585464,"97268 Kirchheim, Germany",Kirchheim,Germany,DE,Germany,Europe,,DE
321,321,9,49.1996961,7.6087847,"Pirmasens, Rhineland-Palatinate, Germany",Pirmasens,Germany,DE,Germany,Europe,,DE
322,322,9,48.8953937,9.1895147,"Ludwigsburg, BW, Germany",Ludwigsburg,Germany,DE,Germany,Europe,,DE
323,323,9,43.8976696,19.2782513,"Kragujevac, SRP, Bosnia and Herzegovina",Kragujevac,Bosnia and Herzegovina,BA,Bosnia and Herzegovina,Europe,,BA
324,324,9,50.66129,6.7871681,"Euskirchen, North Rhine-Westphalia, Germany",Euskirchen,Germany,DE,Germany,Europe,,DE
325,325,9,48.4716556,7.944378,"Offenburg, BW, Germany",Offenburg,Germany,DE,Germany,Europe,,DE
326,326,9,50.302682,7.7518932,"Sulzbach, Rhineland-Palatinate, Germany",Sulzbach,Germany,DE,Germany,Europe,,DE
327,327,9,54.095791,13.3815238,"Greifswald, MV, Germany",Greifswald,Germany,DE,Germany,Europe,,DE
328,328,9,58.9420786,11.9692108,"668 30 Moskow, Sweden",Moskow,Sweden,SE,Sweden,Europe,,SE
329,329,9,47.7910257,12.9651982,"5071 Wals, Austria",Wals,Austria,AT,Austria,Europe,,AT
330,330,9,47.0499925,16.0816815,"8280 Fürstenfeld, Austria",Fürstenfeld,Austria,AT,Austria,Europe,,AT
331,331,9,48.8012983,9.0150026,"71229 Leonberg, Germany",Leonberg,Germany,DE,Germany,Europe,,DE
332,332,9,52.4276606,9.6005102,"Garbsen, Lower Saxony, Germany",Garbsen,Germany,DE,Germany,Europe,,DE
333,333,9,47.2815157,12.4837012,"5730 Mittersill, Austria",Mittersill,Austria,AT,Austria,Europe,,AT
334,334,9,54.2950877,9.1247699,"Kleve, SH, Germany",Kleve,Germany,DE,Germany,Europe,,DE
335,335,9,47.3910322,8.0692413,"5033 Buchs, Switzerland",Buchs,Switzerland,CH,Switzerland,Europe,,CH
336,336,9,53.5505392,8.5851945,"Bremerhaven, Free Hanseatic City of Bremen, Germany",Bremerhaven,Germany,DE,Germany,Europe,,DE
337,337,9,53.6288297,11.4148038,"Schwerin, MV, Germany",Schwerin,Germany,DE,Germany,Europe,,DE
338,338,9,49.9427202,11.5763079,"Bayreuth, Bavaria, Germany",Bayreuth,Germany,DE,Germany,Europe,,DE
339,339,9,49.3038134,8.6433518,"69190 Walldorf, Germany",Walldorf,Germany,DE,Germany,Europe,,DE
340,340,8,46.1623512,16.8307893,"48000 Koprivnica, Croatia",Koprivnica,Croatia,HR,Croatia,Europe,,HR
341,341,8,47.6582006,8.2413047,"79809 Weilheim, Germany",Weilheim,Germany,DE,Germany,Europe,,DE
342,342,8,47.9245987,9.2533029,"88630 Pfullendorf, Germany",Pfullendorf,Germany,DE,Germany,Europe,,DE
343,343,8,50.8807379,6.876568,"50354 Hürth, Germany",Hürth,Germany,DE,Germany,Europe,,DE
344,344,8,52.4526275,9.8602096,"30916 Isernhagen, Germany",Isernhagen,Germany,DE,Germany,Europe,,DE
345,345,8,30.2489634,120.2052342,"Hangzhou City, Zhejiang, China",Hangzhou City,China,CN,China,Asia,,CN
346,346,8,51.5348835,7.689014,"Unna, North Rhine-Westphalia, Germany",Unna,Germany,DE,Germany,Europe,,DE
347,347,8,46.8390583,14.8452061,"9400 Wolfsberg, Austria",Wolfsberg,Austria,AT,Austria,Europe,,AT
348,348,8,51.3746778,7.6999713,"Iserlohn, North Rhine-Westphalia, Germany",Iserlohn,Germany,DE,Germany,Europe,,DE
349,349,8,52.1452223,10.2185768,"38272 Burgdorf, Germany",Burgdorf,Germany,DE,Germany,Europe,,DE
350,350,8,49.8068258,7.3007004,"Weiden, Rhineland-Palatinate, Germany",Weiden,Germany,DE,Germany,Europe,,DE
351,351,8,51.8443183,6.8582247,"46325 Borken, Germany",Borken,Germany,DE,Germany,Europe,,DE
352,352,8,27.9963899,120.695345,"Wenzhou, Zhejiang, China",Wenzhou,China,CN,China,Asia,,CN
353,353,8,48.0514973,10.8737728,"86899 Landsberg am Lech, Germany",Landsberg am Lech,Germany,DE,Germany,Europe,,DE
354,354,8,50.6803187,4.2988086,"1440 Wauthier-Braine, Belgium",Wauthier-Braine,Belgium,BE,Belgium,Europe,,BE
355,355,8,49.6302618,8.3620898,"Worms, Rhineland-Palatinate, Germany",Worms,Germany,DE,Germany,Europe,,DE
356,356,8,-6.9344694,107.6049539,"Bandung, West Java, Indonesia",Bandung,Indonesia,ID,Indonesia,Asia,,ID
357,357,8,39.7252739,-95.1152495,"Brenner, KS, United States of America",Brenner,United States,US,United States,North America,,US
358,358,8,12.9767936,77.590082,"Bengaluru, Bangalore North, India",Bengaluru,India,IN,India,Asia,,IN
359,359,8,49.2608724,-123.113952,"Vancouver, BC, Canada",Vancouver,Canada,CA,Canada,North America,,CA
360,360,8,46.3592869,15.1150301,"Velenje, Slovenia",Velenje,Slovenia,SI,Slovenia,Europe,,SI
361,361,8,52.624056,10.081052,"Celle, Lower Saxony, Germany",Celle,Germany,DE,Germany,Europe,,DE
362,362,8,51.1277815,14.1795516,"01877 Bischofswerda, Germany",Bischofswerda,Germany,DE,Germany,Europe,,DE
363,363,8,52.3217849,10.2349489,"Peine, Lower Saxony, Germany",Peine,Germany,DE,Germany,Europe,,DE
364,364,8,47.1694082,14.6601079,"8750 Judenburg, Austria",Judenburg,Austria,AT,Austria,Europe,,AT
365,365,8,34.1782048,71.646826,"Haryana, KP, Pakistan",Haryana,Pakistan,PK,Pakistan,Asia,,PK
366,366,8,54.4853638,9.0538156,"25813 Husum, Germany",Husum,Germany,DE,Germany,Europe,,DE
367,367,8,51.7687323,19.4569911,"Łódź, Łódź Voivodeship, Poland",Łódź,Poland,PL,Poland,Europe,,PL
368,368,8,53.1108906,9.4049292,"27356 Rotenburg, Germany",Rotenburg,Germany,DE,Germany,Europe,,DE
369,369,8,54.5164982,18.5402738,"Gdynia, Pomeranian Voivodeship, Poland",Gdynia,Poland,PL,Poland,Europe,,PL
370,370,8,51.9928346,6.9173072,"48703 Stadtlohn, Germany",Stadtlohn,Germany,DE,Germany,Europe,,DE
371,371,8,47.8803788,10.622246,"87600 Kaufbeuren, Germany",Kaufbeuren,Germany,DE,Germany,Europe,,DE
372,372,8,28.5561038,78.8965559,"Gurgaon, Bilari, India",Gurgaon,India,IN,India,Asia,,IN
373,373,8,45.2551338,19.8451756,"Novi Sad City, South Backa Administrative District, Serbia",Novi Sad City,Serbia,RS,Serbia,Europe,,RS
374,374,8,60.4517531,22.2670522,"Turku, Southwest Finland, Finland",Turku,Finland,FI,Finland,Europe,,FI
375,375,8,52.2209855,6.8940537,"Enschede, OV, Netherlands",Enschede,Netherlands,NL,Netherlands,Europe,,NL
376,376,8,53.027353,8.7497818,"28816 Stuhr, Germany",Stuhr,Germany,DE,Germany,Europe,,DE
377,377,8,48.47696,8.9336788,"72108 Rottenburg am Neckar, Germany",Rottenburg am Neckar,Germany,DE,Germany,Europe,,DE
378,378,8,52.2096442,7.1886098,"48607 Ochtrup, Germany",Ochtrup,Germany,DE,Germany,Europe,,DE
379,379,8,52.665257,8.2363523,"49393 Lohne, Germany",Lohne,Germany,DE,Germany,Europe,,DE
380,380,8,51.1167001,13.1166999,"04720 Döbeln, Germany",Döbeln,Germany,DE,Germany,Europe,,DE
381,381,8,48.3954965,10.00589,"Neu-Ulm, Bavaria, Germany",Neu-Ulm,Germany,DE,Germany,Europe,,DE
382,382,8,51.6604071,6.9647431,"Dorsten, North Rhine-Westphalia, Germany",Dorsten,Germany,DE,Germany,Europe,,DE
383,383,8,51.1563185,14.991018,"Görlitz, Saxony, Germany",Görlitz,Germany,DE,Germany,Europe,,DE
384,384,8,50.7928332,7.2070774,"53721 Siegburg, Germany",Siegburg,Germany,DE,Germany,Europe,,DE
385,385,8,43.7338436,15.8961863,"Šibenik, Šibenik-Knin County, Croatia",Šibenik,Croatia,HR,Croatia,Europe,,HR
386,386,8,38.9181714,121.6282945,"Zhongshan District, Dalian, Liaoning, China",Dalian,China,CN,China,Asia,,CN
387,387,8,47.7617515,8.8348709,"78224 Singen (Hohentwiel), Germany",Singen (Hohentwiel),Germany,DE,Germany,Europe,,DE
388,388,8,51.250559,22.5701022,"Lublin, Lublin Voivodeship, Poland",Lublin,Poland,PL,Poland,Europe,,PL
389,389,8,49.7187319,11.0595749,"91301 Forchheim, Germany",Forchheim,Germany,DE,Germany,Europe,,DE
390,390,8,46.623943,14.3075976,"Klagenfurt, Carinthia, Austria",Klagenfurt,Austria,AT,Austria,Europe,,AT
391,391,8,48.8333535,12.96205,"94469 Deggendorf, Germany",Deggendorf,Germany,DE,Germany,Europe,,DE
392,392,8,43.5116383,16.4399659,"Split, Split-Dalmatia County, Croatia",Split,Croatia,HR,Croatia,Europe,,HR
393,393,8,29.3093002,120.0703805,"Yiwu, Zhejiang, China",Yiwu,China,CN,China,Asia,,CN
394,394,8,48.3311686,16.0567744,"3430 Gemeinde Tulln an der Donau, Austria",Gemeinde Tulln an der Donau,Austria,AT,Austria,Europe,,AT
395,395,7,51.354394,11.103881,"Bad Frankenhausen, Thuringia, Germany",Bad Frankenhausen,Germany,DE,Germany,Europe,,DE
396,396,7,48.4552525,9.3430199,"72813 St. Johann, Germany",St. Johann,Germany,DE,Germany,Europe,,DE
397,397,7,50.169121,12.1297769,"95100 Selb, Germany",Selb,Germany,DE,Germany,Europe,,DE
398,398,7,52.2060181,4.8648168,"Mijdrecht, UT, Netherlands",Mijdrecht,Netherlands,NL,Netherlands,Europe,,NL
399,399,7,22.3336887,91.8342162,"Chattogram - 4000, Bangladesh",Chattogram,Bangladesh,BD,Bangladesh,Asia,,BD
400,400,7,47.3475782,13.2026049,"5600 Sankt Johann im Pongau, Austria",Sankt Johann im Pongau,Austria,AT,Austria,Europe,,AT
401,401,7,51.4370171,7.335124,"Witten, North Rhine-Westphalia, Germany",Witten,Germany,DE,Germany,Europe,,DE
402,402,7,52.0761541,7.004876,"48683 Ahaus, Germany",Ahaus,Germany,DE,Germany,Europe,,DE
403,403,7,47.6120896,7.6607218,"Lörrach, BW, Germany",Lörrach,Germany,DE,Germany,Europe,,DE
404,404,7,52.7310691,8.2873162,"49377 Vechta, Germany",Vechta,Germany,DE,Germany,Europe,,DE
405,405,7,54.0111091,9.2114907,"Quickborn, SH, Germany",Quickborn,Germany,DE,Germany,Europe,,DE
406,406,7,47.9188724,12.4357282,"Söll, 83257 Gollenshausen am Chiemsee, Germany",Gollenshausen am Chiemsee,Germany,DE,Germany,Europe,,DE
407,407,7,50.7185043,12.4939267,"Zwickau, Saxony, Germany",Zwickau,Germany,DE,Germany,Europe,,DE
408,408,7,49.2634657,6.7922183,"66787 Wadgassen, Germany",Wadgassen,Germany,DE,Germany,Europe,,DE
409,409,7,52.56982145,6.633166913313982,"Hardenberg, OV, Netherlands",Hardenberg,Netherlands,NL,Netherlands,Europe,,NL
410,410,7,51.4007175,7.1862486,"Hattingen, North Rhine-Westphalia, Germany",Hattingen,Germany,DE,Germany,Europe,,DE
411,411,7,10.7758439,106.7017555,"Ho Chi Minh City, Vietnam",Ho Chi Minh City,Vietnam,Unknown code,Vietnam,Asia,VN,VN
412,412,7,51.521581,6.929204,"Bottrop, North Rhine-Westphalia, Germany",Bottrop,Germany,DE,Germany,Europe,,DE
413,413,7,50.3219015,11.9178807,"Hof, Bavaria, Germany",Hof,Germany,DE,Germany,Europe,,DE
414,414,7,49.3165553,8.433615,"67346 Speyer, Germany",Speyer,Germany,DE,Germany,Europe,,DE
415,415,7,45.1665803,18.0121385,"Slavonski Brod, Brod-Posavina County, Croatia",Slavonski Brod,Croatia,HR,Croatia,Europe,,HR
416,416,7,50.8465573,4.351697,"Brussels, Brussels-Capital, Belgium",Brussels,Belgium,BE,Belgium,Europe,,BE
417,417,7,53.0822606,7.3928398,"26871 Papenburg, Germany",Papenburg,Germany,DE,Germany,Europe,,DE
418,418,7,47.2266532,8.8164042,"8640 Rapperswil-Jona, Switzerland",Rapperswil-Jona,Switzerland,CH,Switzerland,Europe,,CH
419,419,7,44.8444,20.4123996,"Zemun, Zemun Urban Municipality, Central Serbia, Serbia",Zemun Urban Municipality,Serbia,RS,Serbia,Europe,,RS
420,420,7,44.4361414,26.1027202,"Bucharest, Romania",Bucharest,Romania,RO,Romania,Europe,,RO
421,421,7,49.5162961,10.6276516,"91459 Buchen, Germany",Buchen,Germany,DE,Germany,Europe,,DE
422,422,7,50.8696345,6.694734,"Kerpen, North Rhine-Westphalia, Germany",Kerpen,Germany,DE,Germany,Europe,,DE
423,423,7,59.4372155,24.7453688,"Tallinn, Harju maakond, Estonia",Tallinn,Estonia,EE,Estonia,Europe,,EE
424,424,7,52.2394431,8.924762,"32457 Porta Westfalica, Germany",Porta Westfalica,Germany,DE,Germany,Europe,,DE
425,425,7,51.5169736,6.3228189,"47608 Geldern, Germany",Geldern,Germany,DE,Germany,Europe,,DE
426,426,7,51.1610826,4.9903187,"2440 Geel, Belgium",Geel,Belgium,BE,Belgium,Europe,,BE
427,427,7,46.5218269,6.6327025,"Lausanne, District de Lausanne, Switzerland",Lausanne,Switzerland,CH,Switzerland,Europe,,CH
428,428,7,43.58264,21.3264811,"City of Kruševac, Rasina Administrative District, Serbia",City of Kruševac,Serbia,RS,Serbia,Europe,,RS
429,429,7,48.8554341,16.0489457,"Znojmo, Jihomoravský kraj, Czechia",Znojmo,Czechia,CZ,Czechia,Europe,,CZ
430,430,7,50.4500336,30.5241361,"Kyiv, Ukraine",Kyiv,Ukraine,UA,Ukraine,Europe,,UA
431,431,7,47.4155906,9.249359,"Gossau (SG), Wahlkreis St. Gallen, Switzerland",Gossau (SG),Switzerland,CH,Switzerland,Europe,,CH
432,432,7,52.9859666,9.8433909,"29614 Soltau, Germany",Soltau,Germany,DE,Germany,Europe,,DE
433,433,7,52.5996262,6.4593207,"Dedemsvaart, OV, Netherlands",Dedemsvaart,Netherlands,NL,Netherlands,Europe,,NL
434,434,7,52.2881045,8.9168852,"Minden, North Rhine-Westphalia, Germany",Minden,Germany,DE,Germany,Europe,,DE
435,435,7,48.5775936,9.8721204,"73340 Amstetten, Germany",Amstetten,Germany,DE,Germany,Europe,,DE
436,436,7,48.0464164,10.4882504,"87719 Mindelheim, Germany",Mindelheim,Germany,DE,Germany,Europe,,DE
437,437,7,49.3028611,10.5722288,"91522 Ansbach, Germany",Ansbach,Germany,DE,Germany,Europe,,DE
438,438,7,50.4302393,7.466302,"Neuwied, Rhineland-Palatinate, Germany",Neuwied,Germany,DE,Germany,Europe,,DE
439,439,7,47.8131847,16.2441166,"Wiener Neustadt, Lower Austria, Austria",Wiener Neustadt,Austria,AT,Austria,Europe,,AT
440,440,7,46.31267315,16.351019097087267,"Varaždin, Varaždin County, Croatia",Varaždin,Croatia,HR,Croatia,Europe,,HR
441,441,7,47.7986,12.9807,"5071 Wals-Siezenheim, Austria",Wals-Siezenheim,Austria,AT,Austria,Europe,,AT
442,442,7,46.2311749,7.3588795,"1950 Sion, Switzerland",Sion,Switzerland,CH,Switzerland,Europe,,CH
443,443,7,53.6332984,9.8499933,"25469 Halstenbek, Germany",Halstenbek,Germany,DE,Germany,Europe,,DE
444,444,7,44.7402211,16.9753564,"Subotica, City of Banja Luka, Bosnia and Herzegovina",Subotica,Bosnia and Herzegovina,BA,Bosnia and Herzegovina,Europe,,BA
445,445,7,52.5150949,5.4768915,"Lelystad, FL, Netherlands",Lelystad,Netherlands,NL,Netherlands,Europe,,NL
446,446,7,47.659216,9.1750718,"Constance, BW, Germany",Constance,Germany,DE,Germany,Europe,,DE
447,447,7,46.9525777,15.8887826,"8330 Feldbach, Austria",Feldbach,Austria,AT,Austria,Europe,,AT
448,448,7,50.0211,14.4525,"Praha 4, Prague, Czechia",Prague,Czechia,CZ,Czechia,Europe,,CZ
449,449,7,48.6901796,9.1525725,"Leinfelden-Echterdingen, BW, Germany",Leinfelden-Echterdingen,Germany,DE,Germany,Europe,,DE
0,450,7,46.1394296,14.5944553,"Domžale, Slovenia",Domžale,Slovenia,SI,Slovenia,Europe,,SI
1,451,7,49.9667881,9.2005109,"63808 Haibach, Germany",Haibach,Germany,DE,Germany,Europe,,DE
2,452,7,53.5098898,10.2511001,"21465 Reinbek, Germany",Reinbek,Germany,DE,Germany,Europe,,DE
3,453,7,50.0464196,8.6717748,"63263 Neu-Isenburg, Germany",Neu-Isenburg,Germany,DE,Germany,Europe,,DE
4,454,7,53.4695604,7.4823808,"Aurich, Lower Saxony, Germany",Aurich,Germany,DE,Germany,Europe,,DE
5,455,7,43.83056,18.27944,"Općina Ilidža, Ilidza, Bosnia and Herzegovina",Općina Ilidža,Bosnia and Herzegovina,BA,Bosnia and Herzegovina,Europe,,BA
6,456,7,49.9178,8.5924,"64331 Weiterstadt, Germany",Weiterstadt,Germany,DE,Germany,Europe,,DE
7,457,7,53.5492988,10.16935,"Oststeinbek, SH, Germany",Oststeinbek,Germany,DE,Germany,Europe,,DE
8,458,7,49.0882126,12.3984153,"93179 Frankenberg, Germany",Frankenberg,Germany,DE,Germany,Europe,,DE
9,459,7,48.8362705,10.0931765,"Aalen, BW, Germany",Aalen,Germany,DE,Germany,Europe,,DE
10,460,7,47.423043,8.5670553,"Glattpark, Glattbrugg, Zurich, Switzerland",Glattbrugg,Switzerland,CH,Switzerland,Europe,,CH
11,461,7,51.8666527,12.646761,"Wittenberg, Saxony-Anhalt, Germany",Wittenberg,Germany,DE,Germany,Europe,,DE
12,462,7,42.64873625,18.094680152605108,"Dubrovnik, Dubrovnik-Neretva County, Croatia",Dubrovnik,Croatia,HR,Croatia,Europe,,HR
13,463,7,51.1933903,5.9882649,"Roermond, LI, Netherlands",Roermond,Netherlands,NL,Netherlands,Europe,,NL
14,464,7,50.8704645,9.0825078912396,"35279 Neustadt, Germany",Neustadt,Germany,DE,Germany,Europe,,DE
15,465,7,52.7264258,6.49308148854467,"Hoogeveen, DR, Netherlands",Hoogeveen,Netherlands,NL,Netherlands,Europe,,NL
16,466,7,53.4301818,14.5509623,"Szczecin, West Pomeranian Voivodeship, Poland",Szczecin,Poland,PL,Poland,Europe,,PL
17,467,7,53.7056126,7.1438175,"26548 Norderney, Germany",Norderney,Germany,DE,Germany,Europe,,DE
18,468,7,47.531399,21.6259782,"Debrecen, Hajdú-Bihar, Hungary",Debrecen,Hungary,HU,Hungary,Europe,,HU
19,469,6,48.4031909,12.7626208,"84307 Eggenfelden, Germany",Eggenfelden,Germany,DE,Germany,Europe,,DE
20,470,6,48.3,11.6167,"85386 Eching, Germany",Eching,Germany,DE,Germany,Europe,,DE
21,471,6,46.2913113,7.8811918,"3930 Visp, Switzerland",Visp,Switzerland,CH,Switzerland,Europe,,CH
22,472,6,54.2900155,10.2254279,"Schwentinental, SH, Germany",Schwentinental,Germany,DE,Germany,Europe,,DE
23,473,6,47.4108191,13.393723,"5531 Eben im Pongau, Austria",Eben im Pongau,Austria,AT,Austria,Europe,,AT
24,474,6,51.016265,13.6530329,"01705 Freital, Germany",Freital,Germany,DE,Germany,Europe,,DE
25,475,6,45.5548793,18.6953685,"Osijek, Osijek-Baranja County, Croatia",Osijek,Croatia,HR,Croatia,Europe,,HR
26,476,6,47.611313550000006,12.242748830477494,"6341 Gemeinde Ebbs, Austria",Gemeinde Ebbs,Austria,AT,Austria,Europe,,AT
27,477,6,47.1301862,16.8444792,"Rum, 9766, Hungary",Rum,Hungary,HU,Hungary,Europe,,HU
28,478,6,47.0812067,8.338521,"6030 Ebikon, Switzerland",Ebikon,Switzerland,CH,Switzerland,Europe,,CH
29,479,6,52.788937,6.8939001,"Emmen, DR, Netherlands",Emmen,Netherlands,NL,Netherlands,Europe,,NL
30,480,6,37.325088,-101.20628,"Moscow, KS, United States of America",Moscow,United States,US,United States,North America,,US
31,481,6,52.6050782,11.8594279,"39576 Stendal, Germany",Stendal,Germany,DE,Germany,Europe,,DE
32,482,6,49.1989574,11.3285933,"92342 Freystadt, Germany",Freystadt,Germany,DE,Germany,Europe,,DE
33,483,6,51.5906898,12.2376054,"Sandersdorf-Brehna, Saxony-Anhalt, Germany",Sandersdorf-Brehna,Germany,DE,Germany,Europe,,DE
34,484,6,53.3498006,-6.2602964,"Dublin, Ireland",Dublin,Ireland,IE,Ireland,Europe,,IE
35,485,6,48.8425793,9.3305129,"Waiblingen, BW, Germany",Waiblingen,Germany,DE,Germany,Europe,,DE
36,486,6,47.4182444,8.3640342,"8957 Spreitenbach, Switzerland",Spreitenbach,Switzerland,CH,Switzerland,Europe,,CH
37,487,6,47.2174206,15.6221694,"8160 Weiz, Austria",Weiz,Austria,AT,Austria,Europe,,AT
38,488,6,51.1764915,11.1007781,"Weißenburg, 99610 Sömmerda, Germany",Sömmerda,Germany,DE,Germany,Europe,,DE
39,489,6,47.4326312,8.5647892,"8152 Glattbrugg, Switzerland",Glattbrugg,Switzerland,CH,Switzerland,Europe,,CH
40,490,6,52.0747377,21.0270885,"Piaseczno, Piaseczno County, Poland",Piaseczno,Poland,PL,Poland,Europe,,PL
41,491,6,48.8516578,10.4885873,"Nördlingen, Bavaria, Germany",Nördlingen,Germany,DE,Germany,Europe,,DE
42,492,6,48.0939396,7.9610142,"79183 Waldkirch, Germany",Waldkirch,Germany,DE,Germany,Europe,,DE
43,493,6,49.2005034,9.5024397,"74613 Öhringen, Germany",Öhringen,Germany,DE,Germany,Europe,,DE
44,494,6,46.9570611,8.3661026,"Stans, NW, Switzerland",Stans,Switzerland,CH,Switzerland,Europe,,CH
45,495,6,47.8134583,10.8967857,"86956 Schongau, Germany",Schongau,Germany,DE,Germany,Europe,,DE
46,496,6,52.5782258,13.5739094,"16356 Ahrensfelde, Germany",Ahrensfelde,Germany,DE,Germany,Europe,,DE
47,497,6,54.51851,9.5653284,"24837 Schleswig, Germany",Schleswig,Germany,DE,Germany,Europe,,DE
48,498,6,51.6576909,6.617087,"Wesel, North Rhine-Westphalia, Germany",Wesel,Germany,DE,Germany,Europe,,DE
49,499,6,52.3077423,9.8132829,"30880 Laatzen, Germany",Laatzen,Germany,DE,Germany,Europe,,DE
50,500,6,52.9962401,7.001434882926471,"Stadskanaal, GR, Netherlands",Stadskanaal,Netherlands,NL,Netherlands,Europe,,NL
51,501,6,43.3211301,21.8959232,"City of Niš, Nisava Administrative District, Serbia",City of Niš,Serbia,RS,Serbia,Europe,,RS
52,502,6,47.4463585,12.3911473,"6370 Stadt Kitzbühel, Austria",Stadt Kitzbühel,Austria,AT,Austria,Europe,,AT
53,503,6,51.4272925,6.8829192,"Mülheim an der Ruhr, North Rhine-Westphalia, Germany",Mülheim an der Ruhr,Germany,DE,Germany,Europe,,DE
54,504,6,31.4220558,73.0923253,"Faisalabad 38000, Pakistan",Faisalabad,Pakistan,PK,Pakistan,Asia,,PK
55,505,6,50.7752776,7.1895507,"53757 Sankt Augustin, Germany",Sankt Augustin,Germany,DE,Germany,Europe,,DE
56,506,6,46.6624644,16.1655256,"Murska Sobota, Slovenia",Murska Sobota,Slovenia,SI,Slovenia,Europe,,SI
57,507,6,47.2523245,11.3279408,"6176 Marktgemeinde Völs, Austria",Marktgemeinde Völs,Austria,AT,Austria,Europe,,AT
58,508,6,51.2550775,9.4119007,"34225 Baunatal, Germany",Baunatal,Germany,DE,Germany,Europe,,DE
59,509,6,47.2291184,16.6187625,"Szombathely, Vas, Hungary",Szombathely,Hungary,HU,Hungary,Europe,,HU
60,510,6,51.2559045,8.8426963,"34497 Korbach, Germany",Korbach,Germany,DE,Germany,Europe,,DE
61,511,6,37.9989592,-86.1694143,"Brandenburg, KY, United States of America",Brandenburg,United States,US,United States,North America,,US
62,512,6,52.78822125,4.741356804254988,"Schagen, North Holland, Netherlands",Schagen,Netherlands,NL,Netherlands,Europe,,NL
63,513,6,48.2737512,8.8557862,"Balingen, BW, Germany",Balingen,Germany,DE,Germany,Europe,,DE
64,514,6,44.5391105,18.675193,"75000 Tuzla, Bosnia and Herzegovina",Tuzla,Bosnia and Herzegovina,BA,Bosnia and Herzegovina,Europe,,BA
65,515,6,46.2432635,14.3549501,"Kranj, Slovenia",Kranj,Slovenia,SI,Slovenia,Europe,,SI
66,516,6,48.8181556,9.278085,"Fellbach, BW, Germany",Fellbach,Germany,DE,Germany,Europe,,DE
67,517,6,43.1252298,0.384241,"65300 Lannemezan, France",Lannemezan,France,FR,France,Europe,,FR
68,518,6,48.233048,8.9991483,"Albstadt, BW, Germany",Albstadt,Germany,DE,Germany,Europe,,DE
69,519,6,49.2308301,8.5337304,"68753 Waghäusel, Germany",Waghäusel,Germany,DE,Germany,Europe,,DE
70,520,6,53.6558152,9.8016369,"25421 Pinneberg, Germany",Pinneberg,Germany,DE,Germany,Europe,,DE
71,521,6,25.2653471,55.2924914,"Dubai, United Arab Emirates",Dubai,United Arab Emirates,AE,United Arab Emirates,Asia,,AE
72,522,6,54.3717445,10.9809235,"23774 Heiligenhafen, Germany",Heiligenhafen,Germany,DE,Germany,Europe,,DE
73,523,6,47.425381,12.833251,"Saalfelden, Zell am See, Austria",Saalfelden,Austria,AT,Austria,Europe,,AT
74,524,6,50.8090106,8.7704695,"Marburg, Hesse, Germany",Marburg,Germany,DE,Germany,Europe,,DE
75,525,6,49.279624,11.4594662,"92318 Neumarkt in der Oberpfalz, Germany",Neumarkt in der Oberpfalz,Germany,DE,Germany,Europe,,DE
76,526,6,53.45,9.38333,"Brest, Lower Saxony, Germany",Brest,Germany,DE,Germany,Europe,,DE
77,527,6,46.1731863,14.6101795,"Radomlje, 1235 Domžale, Slovenia",Domžale,Slovenia,SI,Slovenia,Europe,,SI
78,528,6,51.1245718,8.0568953,"57368 Lennestadt, Germany",Lennestadt,Germany,DE,Germany,Europe,,DE
79,529,6,47.8701474,12.6423403,"83278 Traunstein, Germany",Traunstein,Germany,DE,Germany,Europe,,DE
80,530,6,52.9243859,12.8092919,"Neuruppin, BB, Germany",Neuruppin,Germany,DE,Germany,Europe,,DE
81,531,6,50.1055002,8.7610698,"Offenbach am Main, Hesse, Germany",Offenbach am Main,Germany,DE,Germany,Europe,,DE
82,532,6,30.7474425,120.7510971,"Jiaxing, Zhejiang, China",Jiaxing,China,CN,China,Asia,,CN
83,533,6,48.2402896,12.685745,"84524 Neuötting, Germany",Neuötting,Germany,DE,Germany,Europe,,DE
84,534,6,46.8137431,-71.2084061,"Quebec, QC, Canada",Quebec,Canada,CA,Canada,North America,,CA
85,535,6,49.0970612,10.4148224,"91602 Haslach, Germany",Haslach,Germany,DE,Germany,Europe,,DE
86,536,6,50.9303735,5.3378043,"Hasselt, Belgium",Hasselt,Belgium,BE,Belgium,Europe,,BE
87,537,6,50.0318698,10.5065562,"97437 Haßfurt, Germany",Haßfurt,Germany,DE,Germany,Europe,,DE
88,538,6,51.183316950000005,2.806352008124807,"Middelkerke, West Flanders, Belgium",Middelkerke,Belgium,BE,Belgium,Europe,,BE
89,539,6,13.0836939,80.270186,"Chennai - 600001, TN, India",Chennai,India,IN,India,Asia,,IN
90,540,6,49.928801,10.8754637,"96103 Hallstadt, Germany",Hallstadt,Germany,DE,Germany,Europe,,DE
91,541,6,53.86878,8.698286,"Cuxhaven, Lower Saxony, Germany",Cuxhaven,Germany,DE,Germany,Europe,,DE
92,542,6,47.4459809,13.9008766,"8962 Gröbming, Austria",Gröbming,Austria,AT,Austria,Europe,,AT
93,543,6,49.8703389,11.5610028,"Haag, Bavaria, Germany",Haag,Germany,DE,Germany,Europe,,DE
94,544,6,46.2184018,14.7604622,"Laze v Tuhinju, 1219 Kamnik, Slovenia",Kamnik,Slovenia,SI,Slovenia,Europe,,SI
95,545,6,47.1755353,8.8987142,"8854 Siebnen, Switzerland",Siebnen,Switzerland,CH,Switzerland,Europe,,CH
96,546,6,43.1252298,0.384241,"65300 Lannemezan, France",Lannemezan,France,FR,France,Europe,,FR
97,547,6,51.0281381,4.4803453,"Mechelen, Belgium",Mechelen,Belgium,BE,Belgium,Europe,,BE
98,548,6,47.3496571,7.903787,"Olten, Amtei Olten-Gösgen, Switzerland",Olten,Switzerland,CH,Switzerland,Europe,,CH
99,549,6,53.7936523,12.1759661,"Güstrow, MV, Germany",Güstrow,Germany,DE,Germany,Europe,,DE
100,550,6,51.5328328,9.9351811,"Göttingen, Lower Saxony, Germany",Göttingen,Germany,DE,Germany,Europe,,DE
101,551,6,47.384708,8.4259004,"8902 Urdorf, Switzerland",Urdorf,Switzerland,CH,Switzerland,Europe,,CH
102,552,6,50.8153071,7.1593271,"Troisdorf, North Rhine-Westphalia, Germany",Troisdorf,Germany,DE,Germany,Europe,,DE
103,553,6,53.2327625,7.4577265,"26789 Leer, Germany",Leer,Germany,DE,Germany,Europe,,DE
104,554,6,51.9458943,7.1691108,"48653 Coesfeld, Germany",Coesfeld,Germany,DE,Germany,Europe,,DE
105,555,6,48.204274,14.2496,"Haid, Linz Land, Austria",Haid,Austria,AT,Austria,Europe,,AT
106,556,6,51.1630871,13.4704939,"Meissen, Saxony, Germany",Meissen,Germany,DE,Germany,Europe,,DE
107,557,6,29.9992425,120.576854,"Shaoxing, Zhejiang, China",Shaoxing,China,CN,China,Asia,,CN
108,558,6,46.2293889,15.2616828,"Celje, Slovenia",Celje,Slovenia,SI,Slovenia,Europe,,SI
109,559,6,49.1365626,10.0720195,"74564 Crailsheim, Germany",Crailsheim,Germany,DE,Germany,Europe,,DE
110,560,6,50.8604177,9.6767709,"Bad Hersfeld, Hesse, Germany",Bad Hersfeld,Germany,DE,Germany,Europe,,DE
111,561,6,23.6236732,90.4988075,"Narayanganj - 1400, Bangladesh",Narayanganj,Bangladesh,BD,Bangladesh,Asia,,BD
112,562,6,50.9280843,13.9455903,"01796 Goes, Germany",Goes,Germany,DE,Germany,Europe,,DE
113,563,6,49.1430762,12.4119764,"93199 Zell, Germany",Zell,Germany,DE,Germany,Europe,,DE
114,564,6,46.4323791,14.0623337,"Jesenice, Slovenia",Jesenice,Slovenia,SI,Slovenia,Europe,,SI
115,565,6,47.5047006,10.3061977,"87527 Sonthofen, Germany",Sonthofen,Germany,DE,Germany,Europe,,DE
116,566,6,48.7180364,10.7807299,"86609 Donauwörth, Germany",Donauwörth,Germany,DE,Germany,Europe,,DE
117,567,6,47.3239636,12.7963165,"5700 Zell am See, Austria",Zell am See,Austria,AT,Austria,Europe,,AT
118,568,6,53.4767351,9.7003941,"21614 Buxtehude, Germany",Buxtehude,Germany,DE,Germany,Europe,,DE
119,569,6,47.9973956,16.8608307,"7111 Parndorf/Pandrof, Austria",Parndorf/Pandrof,Austria,AT,Austria,Europe,,AT
120,570,6,52.2658726,6.7924049,"Hengelo, OV, Netherlands",Hengelo,Netherlands,NL,Netherlands,Europe,,NL
121,571,6,48.2305342,9.8771587,"Laupheim, BW, Germany",Laupheim,Germany,DE,Germany,Europe,,DE
122,572,6,47.1054105,15.7098162,"8200 Gleisdorf, Austria",Gleisdorf,Austria,AT,Austria,Europe,,AT
123,573,6,52.1152245,8.6711118,"Herford, North Rhine-Westphalia, Germany",Herford,Germany,DE,Germany,Europe,,DE
124,574,6,60.1674881,24.9427473,"Helsinki, Uusimaa, Finland",Helsinki,Finland,FI,Finland,Europe,,FI
125,575,6,47.051219,8.5507758,"6410 Goldau, Switzerland",Goldau,Switzerland,CH,Switzerland,Europe,,CH
126,576,5,51.4333103,14.250083,"02977 Hoyerswerda - Wojerecy, Germany",Hoyerswerda - Wojerecy,Germany,DE,Germany,Europe,,DE
127,577,5,52.3540888,13.307754,"14979 Großbeeren, Germany",Großbeeren,Germany,DE,Germany,Europe,,DE
128,578,5,51.6485843,7.0829054,"Marl, North Rhine-Westphalia, Germany",Marl,Germany,DE,Germany,Europe,,DE
129,579,5,50.69302,4.204696,"1480 Tubize, Belgium",Tubize,Belgium,BE,Belgium,Europe,,BE
130,580,5,47.4317645,8.4680435,"Regensdorf, Bezirk Dielsdorf, Switzerland",Regensdorf,Switzerland,CH,Switzerland,Europe,,CH
131,581,5,48.9502631,9.1383314,"74321 Bietigheim-Bissingen, Germany",Bietigheim-Bissingen,Germany,DE,Germany,Europe,,DE
132,582,5,47.99078,12.88499,"Sankt Georgen bei Salzburg, Salzburg Umgebung, Austria",Sankt Georgen bei Salzburg,Austria,AT,Austria,Europe,,AT
133,583,5,47.99771495,15.160411375339905,"3270 Gemeinde Scheibbs, Austria",Gemeinde Scheibbs,Austria,AT,Austria,Europe,,AT
134,584,5,49.8452797,9.6067197,"97828 Marktheidenfeld, Germany",Marktheidenfeld,Germany,DE,Germany,Europe,,DE
135,585,5,52.3016096,13.2610163,"14974 Ludwigsfelde, Germany",Ludwigsfelde,Germany,DE,Germany,Europe,,DE
136,586,5,51.4825041,11.9705452,"Halle (Saale), Saxony-Anhalt, Germany",Halle (Saale),Germany,DE,Germany,Europe,,DE
137,587,5,48.1667467,11.803713,"85586 Poing, Germany",Poing,Germany,DE,Germany,Europe,,DE
138,588,5,51.9532449,7.9912335,"48231 Warendorf, Germany",Warendorf,Germany,DE,Germany,Europe,,DE
139,589,5,42.3868638,-0.9357054,"50619 Biel, Spain",Biel,Spain,ES,Spain,Europe,,ES
140,590,5,30.9090157,75.851601,"Ludhiana - 141008, PB, India",Ludhiana,India,IN,India,Asia,,IN
141,591,5,52.8350807,13.7996542,"Eberswalde, BB, Germany",Eberswalde,Germany,DE,Germany,Europe,,DE
142,592,5,51.4886533,9.1488385,"34414 Warburg, Germany",Warburg,Germany,DE,Germany,Europe,,DE
143,593,5,39.744526,98.5072987,"Suzhou District, Suzhou, Gansu, China",Suzhou,China,CN,China,Asia,,CN
144,594,5,51.2562118,6.3905476,"Viersen, North Rhine-Westphalia, Germany",Viersen,Germany,DE,Germany,Europe,,DE
145,595,5,52.6063703,12.3382259,"14712 Rathenow, Germany",Rathenow,Germany,DE,Germany,Europe,,DE
146,596,5,51.9585348,6.281455126241391,"Doetinchem, GE, Netherlands",Doetinchem,Netherlands,NL,Netherlands,Europe,,NL
147,597,5,49.0364564,8.7072589,"75015 Bretten, Germany",Bretten,Germany,DE,Germany,Europe,,DE
148,598,5,52.5873198,12.9920587,"14656 Brieselang, Germany",Brieselang,Germany,DE,Germany,Europe,,DE
149,599,5,53.1091111,6.0948102,"Drachten, Frisia, Netherlands",Drachten,Netherlands,NL,Netherlands,Europe,,NL
150,600,5,49.9524401,9.6721319,"97854 Steinfeld, Germany",Steinfeld,Germany,DE,Germany,Europe,,DE
151,601,5,49.2978755,11.9529711,"92286 Vilshofen, Germany",Vilshofen,Germany,DE,Germany,Europe,,DE
152,602,5,47.3721555,8.0054417,"5012 Schönenwerd, Switzerland",Schönenwerd,Switzerland,CH,Switzerland,Europe,,CH
153,603,5,40.6403167,22.9352716,"546 26 Thessaloniki, Greece",Thessaloniki,Greece,GR,Greece,Europe,,GR
154,604,5,50.9929303,7.1277379,"Bergisch Gladbach, North Rhine-Westphalia, Germany",Bergisch Gladbach,Germany,DE,Germany,Europe,,DE
155,605,5,47.5192013,7.6944741,"4133 Pratteln, Switzerland",Pratteln,Switzerland,CH,Switzerland,Europe,,CH
156,606,5,47.9058525,5.1266052,"52210 Ternat, France",Ternat,France,FR,France,Europe,,FR
157,607,5,48.0662249,11.6102245,"82008 Unterhaching, Germany",Unterhaching,Germany,DE,Germany,Europe,,DE
158,608,5,51.7910191,5.0318616,"Giessen, North Brabant, Netherlands",Giessen,Netherlands,NL,Netherlands,Europe,,NL
159,609,5,48.5236164,9.0535531,"Tübingen, BW, Germany",Tübingen,Germany,DE,Germany,Europe,,DE
160,610,5,48.4008273,11.7439565,"Freising, Bavaria, Germany",Freising,Germany,DE,Germany,Europe,,DE
161,611,5,52.2911243,11.4132719,"39340 Haldensleben, Germany",Haldensleben,Germany,DE,Germany,Europe,,DE
162,612,5,46.9662373,9.5569691,"Landquart, Switzerland",Landquart,Switzerland,CH,Switzerland,Europe,,CH
163,613,5,52.6787254,13.5881114,"16321 Bernau, Germany",Bernau,Germany,DE,Germany,Europe,,DE
164,614,5,52.24773005,5.57827393798401,"Putten, GE, Netherlands",Putten,Netherlands,NL,Netherlands,Europe,,NL
165,615,5,50.133324,14.455523,"Prague 8, Prague, Czechia",,Czechia,CZ,Czechia,Europe,,CZ
166,616,5,51.1999793,11.9667857,"Weißenfels, Saxony-Anhalt, Germany",Weißenfels,Germany,DE,Germany,Europe,,DE
167,617,5,51.0552368,6.2247322,"41836 Hückelhoven, Germany",Hückelhoven,Germany,DE,Germany,Europe,,DE
168,618,5,51.6315282,13.707358,"03238 Finsterwalde, Germany",Finsterwalde,Germany,DE,Germany,Europe,,DE
169,619,5,46.2922522,7.5323195,"3960 Sierre, Switzerland",Sierre,Switzerland,CH,Switzerland,Europe,,CH
170,620,5,48.4248151,10.8778564,"86368 Gersthofen, Germany",Gersthofen,Germany,DE,Germany,Europe,,DE
171,621,5,54.3096314,13.0820846,"Stralsund, MV, Germany",Stralsund,Germany,DE,Germany,Europe,,DE
172,622,5,52.71174435,6.197307325163717,"Meppel, DR, Netherlands",Meppel,Netherlands,NL,Netherlands,Europe,,NL
173,623,5,53.0207,7.85911,"26169 Friesoythe, Germany",Friesoythe,Germany,DE,Germany,Europe,,DE
174,624,5,48.284136,14.306943,"Linz, Austria",Linz,Austria,AT,Austria,Europe,,AT
175,625,5,48.2545659,7.8080276,"77955 Ettenheim, Germany",Ettenheim,Germany,DE,Germany,Europe,,DE
176,626,5,54.1948456,9.0929015,"25746 Heide, Germany",Heide,Germany,DE,Germany,Europe,,DE
177,627,5,51.5255661,12.342857,"04509 Delitzsch, Germany",Delitzsch,Germany,DE,Germany,Europe,,DE
178,628,5,47.9534194,8.4959257,"78166 Donaueschingen, Germany",Donaueschingen,Germany,DE,Germany,Europe,,DE
179,629,5,53.033548,5.6611029,"Sneek, Frisia, Netherlands",Sneek,Netherlands,NL,Netherlands,Europe,,NL
180,630,5,48.4015189,13.3107683,"94060 Pocking, Germany",Pocking,Germany,DE,Germany,Europe,,DE
181,631,5,51.7855428,11.1519933,"Quedlinburg, Saxony-Anhalt, Germany",Quedlinburg,Germany,DE,Germany,Europe,,DE
182,632,5,51.5725501,8.1061259,"59494 Soest, Germany",Soest,Germany,DE,Germany,Europe,,DE
183,633,5,48.1206565,7.850993,"79312 Emmendingen, Germany",Emmendingen,Germany,DE,Germany,Europe,,DE
184,634,5,45.5031824,-73.5698065,"Montreal, QC, Canada",Montreal,Canada,CA,Canada,North America,,CA
185,635,5,51.936284,8.8791526,"Detmold, North Rhine-Westphalia, Germany",Detmold,Germany,DE,Germany,Europe,,DE
186,636,5,46.8137431,-71.2084061,"Quebec, QC, Canada",Quebec,Canada,CA,Canada,North America,,CA
187,637,5,53.3670541,7.2058304,"Emden, Lower Saxony, Germany",Emden,Germany,DE,Germany,Europe,,DE
188,638,5,45.7643442,10.8100598,"37018 Malcesine VR, Italy",Malcesine,Italy,IT,Italy,Europe,,IT
189,639,5,49.0692306,10.3223475,"91550 Dinkelsbühl, Germany",Dinkelsbühl,Germany,DE,Germany,Europe,,DE
190,640,5,52.6113677,8.372661,"49356 Diepholz, Germany",Diepholz,Germany,DE,Germany,Europe,,DE
191,641,5,47.4923741,11.0962815,"Garmisch-Partenkirchen, Bavaria, Germany",Garmisch-Partenkirchen,Germany,DE,Germany,Europe,,DE
192,642,5,50.0171926,8.784277,"63128 Dietzenbach, Germany",Dietzenbach,Germany,DE,Germany,Europe,,DE
193,643,5,48.6945066,8.134423,"77815 Bühl, Germany",Bühl,Germany,DE,Germany,Europe,,DE
194,644,5,51.6142482,7.5228088,"Lünen, North Rhine-Westphalia, Germany",Lünen,Germany,DE,Germany,Europe,,DE
195,645,5,50.2972353,9.0990829,"63654 Büdingen, Germany",Büdingen,Germany,DE,Germany,Europe,,DE
196,646,5,50.2069481,6.4249003,"54595 Prüm, Germany",Prüm,Germany,DE,Germany,Europe,,DE
197,647,5,47.976881,9.9412786,"Ellwangen, BW, Germany",Ellwangen,Germany,DE,Germany,Europe,,DE
198,648,5,53.3965903,10.0176952,"Seevetal, Lower Saxony, Germany",Seevetal,Germany,DE,Germany,Europe,,DE
199,649,5,52.3708764,14.4748245,"Booßen, Frankfurt (Oder), BB, Germany",Frankfurt (Oder),Germany,DE,Germany,Europe,,DE
200,650,5,50.7404535,8.2874957,"Dillenburg, Hesse, Germany",Dillenburg,Germany,DE,Germany,Europe,,DE
201,651,5,46.4981125,11.3547801,"Bolzano - Bozen, South Tyrol, Italy",Bolzano - Bozen,Italy,IT,Italy,Europe,,IT
202,652,5,46.4198096,15.8717378,"Ptuj, Slovenia",Ptuj,Slovenia,SI,Slovenia,Europe,,SI
203,653,5,53.1709841,6.6061413,"Haren, GR, Netherlands",Haren,Netherlands,NL,Netherlands,Europe,,NL
204,654,5,48.3064441,11.9076579,"85435 Erding, Germany",Erding,Germany,DE,Germany,Europe,,DE
205,655,5,47.5709212,10.6977089,"87629 Füssen, Germany",Füssen,Germany,DE,Germany,Europe,,DE
206,656,5,48.1418976,11.787412,"Parsdorf, 85599 Vaterstetten, Germany",Vaterstetten,Germany,DE,Germany,Europe,,DE
207,657,5,49.9954978,9.5733619,"Lohr am Main, Bavaria, Germany",Lohr am Main,Germany,DE,Germany,Europe,,DE
208,658,5,19.0785451,72.878176,"Mumbai, Mumbai Suburban, India",Mumbai,India,IN,India,Asia,,IN
209,659,5,39.4697065,-0.3763353,"Valencia, Valencian Community, Spain",Valencia,Spain,ES,Spain,Europe,,ES
210,660,5,52.2277037,11.0104702,"38350 Helmstedt, Germany",Helmstedt,Germany,DE,Germany,Europe,,DE
211,661,5,47.6281754,8.2408579,"79761 Waldshut-Tiengen, Germany",Waldshut-Tiengen,Germany,DE,Germany,Europe,,DE
212,662,5,50.7260107,11.8153219,"07819 Traun, Germany",Traun,Germany,DE,Germany,Europe,,DE
213,663,5,50.8751813,7.6159479,"51545 Waldbröl, Germany",Waldbröl,Germany,DE,Germany,Europe,,DE
214,664,5,60.2047672,24.6568435,"Espoo, Uusimaa, Finland",Espoo,Finland,FI,Finland,Europe,,FI
215,665,5,47.1740371,8.1089654,"6210 Sursee, Switzerland",Sursee,Switzerland,CH,Switzerland,Europe,,CH
216,666,5,51.4862235,13.8307596,"01987 Schwarzheide, Germany",Schwarzheide,Germany,DE,Germany,Europe,,DE
217,667,5,42.6027722,-91.0740206,"Luxemburg, IA 52056, United States of America",Luxemburg,United States,US,United States,North America,,US
218,668,5,50.3517,9.5613,"36381 Schlüchtern, Germany",Schlüchtern,Germany,DE,Germany,Europe,,DE
219,669,5,48.8146165,15.284518,"3830 Gemeinde Waidhofen an der Thaya, Austria",Gemeinde Waidhofen an der Thaya,Austria,AT,Austria,Europe,,AT
220,670,5,48.235011,13.826192,"4710 Grieskirchen, Austria",Grieskirchen,Austria,AT,Austria,Europe,,AT
221,671,5,48.5763412,12.1714786,"84030 Ergolding, Germany",Ergolding,Germany,DE,Germany,Europe,,DE
222,672,5,43.3435855,17.8076584,"88000 Mostar, Bosnia and Herzegovina",Mostar,Bosnia and Herzegovina,BA,Bosnia and Herzegovina,Europe,,BA
223,673,5,51.5380394,7.219985,"Herne, North Rhine-Westphalia, Germany",Herne,Germany,DE,Germany,Europe,,DE
224,674,5,50.7213643,10.4510467,"98574 Schmalkalden, Germany",Schmalkalden,Germany,DE,Germany,Europe,,DE
225,675,5,53.1638192,6.7556852,"Hoogezand, GR, Netherlands",Hoogezand,Netherlands,NL,Netherlands,Europe,,NL
226,676,5,51.0905783,6.5835365,"Grevenbroich, North Rhine-Westphalia, Germany",Grevenbroich,Germany,DE,Germany,Europe,,DE
227,677,5,49.0832482,19.6164972,"Liptovský Mikuláš, Slovakia",Liptovský Mikuláš,Slovakia,SK,Slovakia,Europe,,SK
228,678,5,20.449288,106.3424893,"Thái Bình, Thai Binh province 06118, Vietnam",Thái Bình,Vietnam,Unknown code,Vietnam,Asia,VN,VN
229,679,5,50.1106444,8.6820917,"Frankfurt, Hesse, Germany",Frankfurt,Germany,DE,Germany,Europe,,DE
230,680,5,46.025686,15.9036337,"49210 Grad Zabok, Croatia",Grad Zabok,Croatia,HR,Croatia,Europe,,HR
231,681,5,45.6245332,-1.0287636,"17200 Royan, France",Royan,France,FR,France,Europe,,FR
232,682,5,48.409809300000006,15.60631866409324,"Krems an der Donau, Lower Austria, Austria",Krems an der Donau,Austria,AT,Austria,Europe,,AT
233,683,5,43.5298424,5.4474738,"Aix-en-Provence, Bouches-du-Rhône, France",Aix-en-Provence,France,FR,France,Europe,,FR
234,684,5,44.9285441,2.4433101,"15000 Aurillac, France",Aurillac,France,FR,France,Europe,,FR
235,685,5,44.9074664,17.3022887,"78250 Laktaši, Bosnia and Herzegovina",Laktaši,Bosnia and Herzegovina,BA,Bosnia and Herzegovina,Europe,,BA
236,686,5,51.1798706,7.1943544,"Remscheid, North Rhine-Westphalia, Germany",Remscheid,Germany,DE,Germany,Europe,,DE
237,687,5,33.8959203,35.47843,"Beirut 2034 1111, Lebanon",Beirut,Lebanon,LB,Lebanon,Asia,,LB
238,688,5,48.6300161,8.0735581,"77855 Achern, Germany",Achern,Germany,DE,Germany,Europe,,DE
239,689,5,52.9821257,8.8495643,"28844 Weyhe, Germany",Weyhe,Germany,DE,Germany,Europe,,DE
240,690,5,47.48033265,12.07928067668956,"6300 Stadt Wörgl, Austria",Stadt Wörgl,Austria,AT,Austria,Europe,,AT
241,691,5,51.0294497,7.8439105,"57462 Olpe, Germany",Olpe,Germany,DE,Germany,Europe,,DE
242,692,5,51.9244424,4.47775,"Rotterdam, South Holland, Netherlands",Rotterdam,Netherlands,NL,Netherlands,Europe,,NL
243,693,5,53.1614211,8.046023,"26160 Bad Zwischenahn, Germany",Bad Zwischenahn,Germany,DE,Germany,Europe,,DE
244,694,5,49.7323415,10.6189378,"96152 Niederndorf, Germany",Niederndorf,Germany,DE,Germany,Europe,,DE
245,695,5,51.6626459,19.4908076,"95-030 Rzgów, Poland",Rzgów,Poland,PL,Poland,Europe,,PL
246,696,5,54.1040539,12.0143412,"Lambrechtshagen, MV, Germany",Lambrechtshagen,Germany,DE,Germany,Europe,,DE
247,697,5,51.1250541,7.9010992,"57439 Attendorn, Germany",Attendorn,Germany,DE,Germany,Europe,,DE
248,698,5,50.6915893,3.1741734,"59100 Roubaix, France",Roubaix,France,FR,France,Europe,,FR
249,699,5,49.7107134,7.3136563,"55743 Idar-Oberstein, Germany",Idar-Oberstein,Germany,DE,Germany,Europe,,DE
250,700,5,53.5942039,7.2067435,"26506 Norden, Germany",Norden,Germany,DE,Germany,Europe,,DE
251,701,5,54.7868097,8.8258359,"Niebüll, SH, Germany",Niebüll,Germany,DE,Germany,Europe,,DE
252,702,5,-6.1753942,106.827183,"Special Capital Region of Jakarta, Indonesia",Special Capital Region of Jakarta,Indonesia,ID,Indonesia,Asia,,ID
253,703,5,51.9914084,8.7919583,"32791 Lage, Germany",Lage,Germany,DE,Germany,Europe,,DE
254,704,5,48.9118584,2.3658756,"La Plaine Saint-Denis, Saint-Denis, Ile-de-France, France",Saint-Denis,France,FR,France,Europe,,FR
255,705,5,48.6265854,9.3365463,"72622 Nürtingen, Germany",Nürtingen,Germany,DE,Germany,Europe,,DE
256,706,5,53.1429957,7.0381231,"Winschoten, GR, Netherlands",Winschoten,Netherlands,NL,Netherlands,Europe,,NL
257,707,5,50.065151,8.5296632,"65451 Kelsterbach, Germany",Kelsterbach,Germany,DE,Germany,Europe,,DE
258,708,5,49.169841,12.8782503,"93444 Bad Kötzting, Germany",Bad Kötzting,Germany,DE,Germany,Europe,,DE
259,709,5,52.1562499,5.3896944,"Amersfoort, UT, Netherlands",Amersfoort,Netherlands,NL,Netherlands,Europe,,NL
260,710,5,47.6464362,9.1725621,"8280 Kreuzlingen, Switzerland",Kreuzlingen,Switzerland,CH,Switzerland,Europe,,CH
261,711,5,50.812318,10.2320784,"Bad Salzungen, Thuringia, Germany",Bad Salzungen,Germany,DE,Germany,Europe,,DE
262,712,5,48.0158071,9.5010309,"88348 Bad Saulgau, Germany",Bad Saulgau,Germany,DE,Germany,Europe,,DE
263,713,5,48.4128592,9.4947894,"72525 Münsingen, Germany",Münsingen,Germany,DE,Germany,Europe,,DE
264,714,5,50.2971914,11.0428276,"96472 Rödental, Germany",Rödental,Germany,DE,Germany,Europe,,DE
265,715,5,45.3411065,17.8313934,"34312 Sesvete, Croatia",Sesvete,Croatia,HR,Croatia,Europe,,HR
266,716,5,51.1902651,6.5143539,"41352 Korschenbroich, Germany",Korschenbroich,Germany,DE,Germany,Europe,,DE
267,717,5,51.1813907,14.4275735,"02625 Bautzen - Budyšin, Germany",Bautzen - Budyšin,Germany,DE,Germany,Europe,,DE
268,718,5,49.6810158,8.6227577,"64625 Bensheim, Germany",Bensheim,Germany,DE,Germany,Europe,,DE
269,719,5,47.2782467,8.4521518,"Affoltern am Albis, Bezirk Affoltern, Switzerland",Affoltern am Albis,Switzerland,CH,Switzerland,Europe,,CH
270,720,5,49.8583309,9.0842372,"63853 Mömlingen, Germany",Mömlingen,Germany,DE,Germany,Europe,,DE
271,721,5,49.191133,9.2248391,"74172 Neckarsulm, Germany",Neckarsulm,Germany,DE,Germany,Europe,,DE
272,722,5,52.2774772,7.7151417,"Ibbenbüren, North Rhine-Westphalia, Germany",Ibbenbüren,Germany,DE,Germany,Europe,,DE
273,723,5,45.8040475,15.1696684,"Novo Mesto, Slovenia",Novo Mesto,Slovenia,SI,Slovenia,Europe,,SI
274,724,5,49.2861586,8.2173112,"67482 Altdorf, Germany",Altdorf,Germany,DE,Germany,Europe,,DE
275,725,5,44.199828,17.9093012,"72000 Zenica, Bosnia and Herzegovina",Zenica,Bosnia and Herzegovina,BA,Bosnia and Herzegovina,Europe,,BA
276,726,5,56.9493977,24.1051846,"Riga, Vidzeme, Latvia",Riga,Latvia,LV,Latvia,Europe,,LV
277,727,5,31.3869323,120.9764683,"Kunshan, Jiangsu, China",Kunshan,China,CN,China,Asia,,CN
278,728,5,45.3267976,14.442208,"51000 Rijeka, Croatia",Rijeka,Croatia,HR,Croatia,Europe,,HR
279,729,5,45.84264135,15.962231476593626,"Zagreb, Croatia",Zagreb,Croatia,HR,Croatia,Europe,,HR
280,730,5,47.3504945,8.2786906,"Wohlen, Bezirk Bremgarten, Switzerland",Wohlen,Switzerland,CH,Switzerland,Europe,,CH
281,731,5,44.8133048,20.4183382,"New Belgrade, Central Serbia, Serbia",,Serbia,RS,Serbia,Europe,,RS
282,732,5,47.3299506,9.4099311,"9050 Appenzell, Switzerland",Appenzell,Switzerland,CH,Switzerland,Europe,,CH
283,733,5,51.3038241,13.308828,"Riesa, Saxony, Germany",Riesa,Germany,DE,Germany,Europe,,DE
284,734,5,50.5788781,13.0106108,"09456 Annaberg-Buchholz, Germany",Annaberg-Buchholz,Germany,DE,Germany,Europe,,DE
285,735,5,31.8782976,120.5514595,"Zhangjiagang, Jiangsu, China",Zhangjiagang,China,CN,China,Asia,,CN
286,736,4,46.5576439,15.6455854,"Maribor, Slovenia",Maribor,Slovenia,SI,Slovenia,Europe,,SI
287,737,4,48.5447465,16.7621379,"2225 Gemeinde Zistersdorf, Austria",Gemeinde Zistersdorf,Austria,AT,Austria,Europe,,AT
288,738,4,48.3154945,13.4337442,"4974 Ort im Innkreis, Austria",Ort im Innkreis,Austria,AT,Austria,Europe,,AT
289,739,4,51.4001119,7.4330062,"58313 Herdecke, Germany",Herdecke,Germany,DE,Germany,Europe,,DE
290,740,4,45.9580549,13.6474706,"Nova Gorica, Slovenia",Nova Gorica,Slovenia,SI,Slovenia,Europe,,SI
291,741,4,48.9879681,12.1937046,"93073 Neutraubling, Germany",Neutraubling,Germany,DE,Germany,Europe,,DE
292,742,4,47.4405481,15.2901669,"8605 Kapfenberg, Austria",Kapfenberg,Austria,AT,Austria,Europe,,AT
293,743,4,51.2911845,13.5317153,"01558 Großenhain, Germany",Großenhain,Germany,DE,Germany,Europe,,DE
294,744,4,53.5027182,8.0144916,"26452 Sande, Germany",Sande,Germany,DE,Germany,Europe,,DE
295,745,4,48.3767652,17.5858175,"Trnava, Slovakia",Trnava,Slovakia,SK,Slovakia,Europe,,SK
296,746,4,51.4586736,12.6344389,"04838 Eilenburg, Germany",Eilenburg,Germany,DE,Germany,Europe,,DE
297,747,4,41.9960924,21.4316495,"Skopje, City of Skopje, North Macedonia",Skopje,North Macedonia,MK,North Macedonia,Europe,,MK
298,748,4,47.2990667,8.6884584,"Egg, Bezirk Uster, Switzerland",Egg,Switzerland,CH,Switzerland,Europe,,CH
299,749,4,49.3261854,12.1092708,"92421 Schwandorf, Germany",Schwandorf,Germany,DE,Germany,Europe,,DE
300,750,4,46.9369963,9.5665236,"7205 Zizers, Switzerland",Zizers,Switzerland,CH,Switzerland,Europe,,CH
301,751,4,49.98942,8.425592,"Rüsselsheim am Main, Hesse, Germany",Rüsselsheim am Main,Germany,DE,Germany,Europe,,DE
302,752,4,53.9882387,9.2264708,"Buchholz, SH, Germany",Buchholz,Germany,DE,Germany,Europe,,DE
303,753,4,47.8556623,12.0595795,"83059 Kolbermoor, Germany",Kolbermoor,Germany,DE,Germany,Europe,,DE
304,754,4,50.9257352,9.2020472,"34613 Schwalmstadt, Germany",Schwalmstadt,Germany,DE,Germany,Europe,,DE
305,755,4,51.1840421,5.1155267,"2400 Mol, Belgium",Mol,Belgium,BE,Belgium,Europe,,BE
306,756,4,47.3898617,8.690503,"Volketswil, Bezirk Uster, Switzerland",Volketswil,Switzerland,CH,Switzerland,Europe,,CH
307,757,4,47.1627634,9.4764086,"Buchs (SG), Wahlkreis Werdenberg, Switzerland",Buchs (SG),Switzerland,CH,Switzerland,Europe,,CH
308,758,4,44.4361414,26.1027202,"Bucharest, Romania",Bucharest,Romania,RO,Romania,Europe,,RO
309,759,4,47.9651461,7.9573306,"79199 Kirchzarten, Germany",Kirchzarten,Germany,DE,Germany,Europe,,DE
310,760,4,54.1441095,10.9588499,"23743 Grömitz, Germany",Grömitz,Germany,DE,Germany,Europe,,DE
311,761,4,29.148796,106.218891,"Jiangjin District, Guangdong, Chongqing, China",Guangdong,China,CN,China,Asia,,CN
312,762,4,51.451283,6.62843,"Moers, North Rhine-Westphalia, Germany",Moers,Germany,DE,Germany,Europe,,DE
313,763,4,47.9450169,13.2253002,"5202 Neumarkt am Wallersee, Austria",Neumarkt am Wallersee,Austria,AT,Austria,Europe,,AT
314,764,4,47.5604617,8.0601696,"Laufenburg, Bezirk Laufenburg, Switzerland",Laufenburg,Switzerland,CH,Switzerland,Europe,,CH
315,765,4,48.165064,17.145673,"Bratislava, Bratislava III, Slovakia",Bratislava,Slovakia,SK,Slovakia,Europe,,SK
316,766,4,54.1364642,10.6159077,"Eutin, SH, Germany",Eutin,Germany,DE,Germany,Europe,,DE
317,767,4,43.6776223,4.6309653,"Arles, Bouches-du-Rhône, France",Arles,France,FR,France,Europe,,FR
318,768,4,49.1922443,16.6113382,"Brno, Jihomoravský kraj, Czechia",Brno,Czechia,CZ,Czechia,Europe,,CZ
319,769,4,47.42784205,11.910096532808074,"6230 Marktgemeinde Brixlegg, Austria",Marktgemeinde Brixlegg,Austria,AT,Austria,Europe,,AT
320,770,4,28.4031478,77.3105561,"Faridabad - 121001, HR, India",Faridabad,India,IN,India,Asia,,IN
321,771,4,53.2467081,8.201904,"26180 Rastede, Germany",Rastede,Germany,DE,Germany,Europe,,DE
322,772,4,51.6565219,10.3428415,"37412 Herzberg, Germany",Herzberg,Germany,DE,Germany,Europe,,DE
323,773,4,54.4387302,12.6821366,"18374 Zingst, Germany",Zingst,Germany,DE,Germany,Europe,,DE
324,774,4,51.4729797,11.2981851,"Sangerhausen, Saxony-Anhalt, Germany",Sangerhausen,Germany,DE,Germany,Europe,,DE
325,775,4,49.1493317,7.7802569,"66994 Dahn, Germany",Dahn,Germany,DE,Germany,Europe,,DE
326,776,4,50.0374531,22.0047174,"Rzeszów, Subcarpathian Voivodeship, Poland",Rzeszów,Poland,PL,Poland,Europe,,PL
327,777,4,48.0829584,8.182261,"Schweiz, 78141 Furtwangen im Schwarzwald, Germany",Furtwangen im Schwarzwald,Germany,DE,Germany,Europe,,DE
328,778,4,50.0842845,14.4178391,"Old Town, Prague, Czechia",Prague,Czechia,CZ,Czechia,Europe,,CZ
329,779,4,48.2266316,11.4676387,"85757 Karlsfeld, Germany",Karlsfeld,Germany,DE,Germany,Europe,,DE
330,780,4,50.9074568,6.1826282,"52499 Baesweiler, Germany",Baesweiler,Germany,DE,Germany,Europe,,DE
331,781,4,52.897103,8.4364342,"27793 Wildeshausen, Germany",Wildeshausen,Germany,DE,Germany,Europe,,DE
332,782,4,51.5942009,7.1368071,"Herten, North Rhine-Westphalia, Germany",Herten,Germany,DE,Germany,Europe,,DE
333,783,4,52.2156457,5.9639485,"Apeldoorn, GE, Netherlands",Apeldoorn,Netherlands,NL,Netherlands,Europe,,NL
334,784,4,48.0303948,16.75801830741043,"2460 Gemeinde Bruck an der Leitha, Austria",Gemeinde Bruck an der Leitha,Austria,AT,Austria,Europe,,AT
335,785,4,45.9576254,14.6531854,"Grosuplje, Slovenia",Grosuplje,Slovenia,SI,Slovenia,Europe,,SI
336,786,4,45.2926341,4.1727546,"43120 Monistrol-sur-Loire, France",Monistrol-sur-Loire,France,FR,France,Europe,,FR
337,787,4,46.4198096,15.8717378,"Ptuj, Slovenia",Ptuj,Slovenia,SI,Slovenia,Europe,,SI
338,788,4,49.0846481,12.7514053,"94371 Rattenberg, Germany",Rattenberg,Germany,DE,Germany,Europe,,DE
339,789,4,51.1700864,4.3942577,"2610 Antwerp, Belgium",Antwerp,Belgium,BE,Belgium,Europe,,BE
340,790,4,50.07184,14.429817,"Prague 2, Prague, Czechia",Prague,Czechia,CZ,Czechia,Europe,,CZ
341,791,4,50.5544687,6.2407954,"52156 Monschau, Germany",Monschau,Germany,DE,Germany,Europe,,DE
342,792,4,11.0968195,-2.9290149,"Koper, Ioba, Burkina Faso",Koper,Burkina Faso,BF,Burkina Faso,Africa,,BF
343,793,4,52.2241375,5.1719396,"Hilversum, North Holland, Netherlands",Hilversum,Netherlands,NL,Netherlands,Europe,,NL
344,794,4,51.984257,5.9108573,"Arnhem, GE, Netherlands",Arnhem,Netherlands,NL,Netherlands,Europe,,NL
345,795,4,61.4980214,23.7603118,"Tampere, Pirkanmaa, Finland",Tampere,Finland,FI,Finland,Europe,,FI
346,796,4,50.571027,-111.893005,"Brooks, AB, Canada",Brooks,Canada,CA,Canada,North America,,CA
347,797,4,48.4937953,9.3978845,"72574 Bad Urach, Germany",Bad Urach,Germany,DE,Germany,Europe,,DE
348,798,4,48.2594396,7.454217,"67600 Sélestat, France",Sélestat,France,FR,France,Europe,,FR
349,799,4,48.4569975,13.4318,"4780 Schärding, Austria",Schärding,Austria,AT,Austria,Europe,,AT
350,800,4,48.1907992,14.1117625,"4614 Marchtrenk, Austria",Marchtrenk,Austria,AT,Austria,Europe,,AT
351,801,4,47.9209556,9.7542772,"88339 Bad Waldsee, Germany",Bad Waldsee,Germany,DE,Germany,Europe,,DE
352,802,4,45.7752847,14.2139937,"Postojna, Slovenia",Postojna,Slovenia,SI,Slovenia,Europe,,SI
353,803,4,50.5444551,7.1186671,"53474 Bad Neuenahr-Ahrweiler, Germany",Bad Neuenahr-Ahrweiler,Germany,DE,Germany,Europe,,DE
354,804,4,50.5909999,6.6525479,"53894 Mechernich, Germany",Mechernich,Germany,DE,Germany,Europe,,DE
355,805,4,51.0908037,6.0362727,"Haaren, North Rhine-Westphalia, Germany",Haaren,Germany,DE,Germany,Europe,,DE
356,806,4,48.8204596,11.1231661,"91809 Hard, Germany",Hard,Germany,DE,Germany,Europe,,DE
357,807,4,51.7627633,7.8909086,"Ahlen, North Rhine-Westphalia, Germany",Ahlen,Germany,DE,Germany,Europe,,DE
358,808,4,52.5462731,12.9404114,"14641 Wustermark, Germany",Wustermark,Germany,DE,Germany,Europe,,DE
359,809,4,53.1193496,13.5005559,"17268 Templin, Germany",Templin,Germany,DE,Germany,Europe,,DE
360,810,4,47.365582,8.7819841,"Pfäffikon, Bezirk Pfäffikon, Switzerland",Pfäffikon,Switzerland,CH,Switzerland,Europe,,CH
361,811,4,48.6700519,-1.3304138,"50300 Avranches, France",Avranches,France,FR,France,Europe,,FR
362,812,4,53.453232,9.502652,"21698 Harsefeld, Germany",Harsefeld,Germany,DE,Germany,Europe,,DE
363,813,4,46.2054037,14.5394407,"1218 Komenda, Slovenia",Komenda,Slovenia,SI,Slovenia,Europe,,SI
364,814,4,45.7578137,4.8320114,"Lyon, Métropole de Lyon, France",Lyon,France,FR,France,Europe,,FR
365,815,4,47.077539,8.270942,"Emmenbrücke, Emmen, Lucerne, Switzerland",Emmen,Switzerland,CH,Switzerland,Europe,,CH
366,816,4,10.7758439,106.7017555,"Ho Chi Minh City, Vietnam",Ho Chi Minh City,Vietnam,Unknown code,Vietnam,Asia,VN,VN
367,817,4,11.3306483,77.7276519,"Erode - 638001, TN, India",Erode,India,IN,India,Asia,,IN
368,818,4,49.649554,6.2262751,"1245 Senningerberg, Luxembourg",Senningerberg,Luxembourg,LU,Luxembourg,Europe,,LU
369,819,4,50.1945683,3.2666564,"59161 Escaudœuvres, France",Escaudœuvres,France,FR,France,Europe,,FR
370,820,4,30.2489634,120.2052342,"Hangzhou City, Zhejiang, China",Hangzhou City,China,CN,China,Asia,,CN
371,821,4,47.7368423,16.3980488,"7210 Mattersburg, Austria",Mattersburg,Austria,AT,Austria,Europe,,AT
372,822,4,52.9666845,10.5584863,"29525 Uelzen, Germany",Uelzen,Germany,DE,Germany,Europe,,DE
373,823,4,51.24638,6.69363,"Meerbusch, North Rhine-Westphalia, Germany",Meerbusch,Germany,DE,Germany,Europe,,DE
374,824,4,46.2546312,20.1486016,"Szeged, Csongrád-Csanád County, Hungary",Szeged,Hungary,HU,Hungary,Europe,,HU
375,825,4,49.7488623,18.6334308,"43-400 Cieszyn, Poland",Cieszyn,Poland,PL,Poland,Europe,,PL
376,826,4,53.8921754,9.2539471,"Sankt Margarethen, SH, Germany",Sankt Margarethen,Germany,DE,Germany,Europe,,DE
377,827,4,51.1618258,11.1174874,"99610 Sömmerda, Germany",Sömmerda,Germany,DE,Germany,Europe,,DE
378,828,4,48.3182064,11.7445128,"85399 Hallbergmoos, Germany",Hallbergmoos,Germany,DE,Germany,Europe,,DE
379,829,4,48.6050427,15.1681644,"3910 Gemeinde Zwettl-Niederösterreich, Austria",Gemeinde Zwettl-Niederösterreich,Austria,AT,Austria,Europe,,AT
380,830,4,48.2272068,15.3369992,"3390 Gemeinde Melk, Austria",Gemeinde Melk,Austria,AT,Austria,Europe,,AT
381,831,4,52.200762,8.338667,"Melle, Lower Saxony, Germany",Melle,Germany,DE,Germany,Europe,,DE
382,832,4,48.5905969,9.2330064,"72654 Neckartenzlingen, Germany",Neckartenzlingen,Germany,DE,Germany,Europe,,DE
383,833,4,50.56761,10.4153029,"98617 Meiningen, Germany",Meiningen,Germany,DE,Germany,Europe,,DE
384,834,4,49.0641578,8.9753958,"74397 Pfaffenhofen, Germany",Pfaffenhofen,Germany,DE,Germany,Europe,,DE
385,835,4,51.2474866,9.1654156,"34311 Naumburg, Germany",Naumburg,Germany,DE,Germany,Europe,,DE
386,836,4,52.1625283,10.5348215,"Wolfenbüttel, Lower Saxony, Germany",Wolfenbüttel,Germany,DE,Germany,Europe,,DE
387,837,4,50.3720933,7.2812427,"56743 Mendig, Germany",Mendig,Germany,DE,Germany,Europe,,DE
388,838,4,28.5707841,77.3271074,"Noida - 201301, UP, India",Noida,India,IN,India,Asia,,IN
389,839,4,48.7050548,13.4821862,"94116 Prag, Germany",Prag,Germany,DE,Germany,Europe,,DE
390,840,4,40.434148,-75.658862,"District, PA, United States of America",District,United States,US,United States,North America,,US
391,841,4,44.0121279,4.4196718,"30700 Uzès, France",Uzès,France,FR,France,Europe,,FR
392,842,4,46.0575677,14.8314192,"Litija, Slovenia",Litija,Slovenia,SI,Slovenia,Europe,,SI
393,843,4,47.3512065,8.7179221,"Uster, Bezirk Uster, Switzerland",Uster,Switzerland,CH,Switzerland,Europe,,CH
394,844,4,51.0977642,4.1377229,"9220 Hamme, Belgium",Hamme,Belgium,BE,Belgium,Europe,,BE
395,845,4,51.5191742,14.0046541,"Senftenberg, BB, Germany",Senftenberg,Germany,DE,Germany,Europe,,DE
396,846,4,50.9281717,11.5879359,"Jena, Thuringia, Germany",Jena,Germany,DE,Germany,Europe,,DE
397,847,4,44.4361414,26.1027202,"Bucharest, Romania",Bucharest,Romania,RO,Romania,Europe,,RO
398,848,4,49.293045,-1.547333,"La Haye-du-Puits, Manche, France",La Haye-du-Puits,France,FR,France,Europe,,FR
399,849,4,50.6196175,26.2513165,"Rivne Raion, Rivne, Rivne Oblast, Ukraine",Rivne,Ukraine,UA,Ukraine,Europe,,UA
400,850,4,47.034146,8.2807994,"Kriens, Lucerne, Switzerland",Kriens,Switzerland,CH,Switzerland,Europe,,CH
401,851,4,6.9387469,79.8541134,"Colombo, Colombo District, Sri Lanka",Colombo,Sri Lanka,LK,Sri Lanka,Asia,,LK
402,852,4,47.9118288,7.7033313,"Bad Krozingen, BW, Germany",Bad Krozingen,Germany,DE,Germany,Europe,,DE
403,853,4,43.5298424,5.4474738,"Aix-en-Provence, Bouches-du-Rhône, France",Aix-en-Provence,France,FR,France,Europe,,FR
404,854,4,49.6901444,14.0103663,"261 01 Příbram, Czechia",Příbram,Czechia,CZ,Czechia,Europe,,CZ
405,855,4,40.9918737,28.7711956,"Küçükçekmece, Istanbul, Turkey",Küçükçekmece,Turkey,TR,Turkey,Asia,,TR
406,856,4,44.1767161,28.6507598,"Constanța, Romania",Constanța,Romania,RO,Romania,Europe,,RO
407,857,4,46.2257358,14.6118936,"Kamnik, Slovenia",Kamnik,Slovenia,SI,Slovenia,Europe,,SI
408,858,4,53.9000945,11.3832152,"Gägelow, MV, Germany",Gägelow,Germany,DE,Germany,Europe,,DE
409,859,4,50.9598627,7.9896202,"57223 Kreuztal, Germany",Kreuztal,Germany,DE,Germany,Europe,,DE
410,860,4,48.8754571,9.3978478,"71364 Winnenden, Germany",Winnenden,Germany,DE,Germany,Europe,,DE
411,861,4,50.389471,7.6734439,"56337 Simmern, Germany",Simmern,Germany,DE,Germany,Europe,,DE
412,862,4,46.1554222,8.7707865,"6612 Ascona, Switzerland",Ascona,Switzerland,CH,Switzerland,Europe,,CH
413,863,4,50.4665284,4.8661892,"Namur, Belgium",Namur,Belgium,BE,Belgium,Europe,,BE
414,864,4,48.1713481,11.7160347,"85609 Aschheim, Germany",Aschheim,Germany,DE,Germany,Europe,,DE
415,865,4,50.9383226,4.0392147,"Aalst, Belgium",Aalst,Belgium,BE,Belgium,Europe,,BE
416,866,4,49.9600346,6.3512069,"Burg, Rhineland-Palatinate, Germany",Burg,Germany,DE,Germany,Europe,,DE
417,867,4,51.96802135,6.7378723633667885,"Winterswijk, GE, Netherlands",Winterswijk,Netherlands,NL,Netherlands,Europe,,NL
418,868,4,48.7371951,11.1795268,"86633 Neuburg an der Donau, Germany",Neuburg an der Donau,Germany,DE,Germany,Europe,,DE
419,869,4,51.7717757,7.444639,"59348 Lüdinghausen, Germany",Lüdinghausen,Germany,DE,Germany,Europe,,DE
420,870,4,50.258112,10.964463,"96450 Coburg, Germany",Coburg,Germany,DE,Germany,Europe,,DE
421,871,4,46.7672814,14.3576981,"9300 Sankt Veit an der Glan, Austria",Sankt Veit an der Glan,Austria,AT,Austria,Europe,,AT
422,872,4,51.5283282,11.5465911,"06295 Lutherstadt Eisleben, Germany",Lutherstadt Eisleben,Germany,DE,Germany,Europe,,DE
423,873,4,48.4539028,10.2785509,"89312 Günzburg, Germany",Günzburg,Germany,DE,Germany,Europe,,DE
424,874,4,43.6044622,1.4442469,"Toulouse, Haute-Garonne, France",Toulouse,France,FR,France,Europe,,FR
425,875,4,47.790025,11.8335417,"83714 Miesbach, Germany",Miesbach,Germany,DE,Germany,Europe,,DE
426,876,4,51.5270258,5.9753635,"Venray, LI, Netherlands",Venray,Netherlands,NL,Netherlands,Europe,,NL
427,877,4,52.1503721,10.3593147,"Salzgitter, Lower Saxony, Germany",Salzgitter,Germany,DE,Germany,Europe,,DE
428,878,4,51.8830037,8.5093149,"33415 Verl, Germany",Verl,Germany,DE,Germany,Europe,,DE
429,879,4,46.0765883,18.2280397,"Pécs, Baranya, Hungary",Pécs,Hungary,HU,Hungary,Europe,,HU
430,880,4,51.5525333,8.5591919,"33142 Büren, Germany",Büren,Germany,DE,Germany,Europe,,DE
431,881,4,43.8914332,20.3491624,"Cacak City, Moravica Administrative District, Serbia",Cacak City,Serbia,RS,Serbia,Europe,,RS
432,882,4,50.4700819,7.7956173,"Wirges, Rhineland-Palatinate, Germany",Wirges,Germany,DE,Germany,Europe,,DE
433,883,4,48.7718361,18.6234916,"Prievidza, Slovakia",Prievidza,Slovakia,SK,Slovakia,Europe,,SK
434,884,4,53.7532486,9.6524559,"Elmshorn, SH, Germany",Elmshorn,Germany,DE,Germany,Europe,,DE
435,885,4,47.0122176,15.3995619,"8054 Seiersberg-Pirka, Austria",Seiersberg-Pirka,Austria,AT,Austria,Europe,,AT
436,886,4,47.5642319,13.3460333,"5441 Abtenau, Austria",Abtenau,Austria,AT,Austria,Europe,,AT
437,887,4,54.1298489,8.8586989,"25761 Büsum, Germany",Büsum,Germany,DE,Germany,Europe,,DE
438,888,4,51.1155182,7.3879068,"Wipperfürth, North Rhine-Westphalia, Germany",Wipperfürth,Germany,DE,Germany,Europe,,DE
440,890,4,50.6833,12.9167,"09392 Auerbach, Germany",Auerbach,Germany,DE,Germany,Europe,,DE
441,891,4,47.4553157,11.873043308886206,"6233 Gemeinde Kramsach, Austria",Gemeinde Kramsach,Austria,AT,Austria,Europe,,AT
442,892,4,47.2627727,7.8319249,"Murgenthal, Bezirk Zofingen, Switzerland",Murgenthal,Switzerland,CH,Switzerland,Europe,,CH
443,893,4,52.0298704,5.09293337891924,"Nieuwegein, UT, Netherlands",Nieuwegein,Netherlands,NL,Netherlands,Europe,,NL
444,894,4,53.0823032,9.996472,"29646 Bispingen, Germany",Bispingen,Germany,DE,Germany,Europe,,DE
445,895,4,50.2780834,19.1342944,"Sosnowiec, Górnośląsko-Zagłębiowska Metropolia, Poland",Sosnowiec,Poland,PL,Poland,Europe,,PL
446,896,4,48.31277505,16.475502981863052,"2201 Gemeinde Gerasdorf bei Wien, Austria",Gemeinde Gerasdorf bei Wien,Austria,AT,Austria,Europe,,AT
447,897,4,48.6834007,9.82070681385096,"73072 Donzdorf, Germany",Donzdorf,Germany,DE,Germany,Europe,,DE
448,898,4,53.5355378,8.662196,"27619 Schiffdorf, Germany",Schiffdorf,Germany,DE,Germany,Europe,,DE
449,899,4,3.6363497,116.518884,"Waren, Malinau, Indonesia",Waren,Indonesia,ID,Indonesia,Asia,,ID
0,900,4,51.0941656,6.8407931,"Dormagen, North Rhine-Westphalia, Germany",Dormagen,Germany,DE,Germany,Europe,,DE
1,901,4,48.4663553,8.5012993,"72280 Dornstetten, Germany",Dornstetten,Germany,DE,Germany,Europe,,DE
2,902,4,51.4458105,8.3536824,"59581 Warstein, Germany",Warstein,Germany,DE,Germany,Europe,,DE
3,903,4,60.4674228,26.9450844,"Kotka, Kymenlaakso, Finland",Kotka,Finland,FI,Finland,Europe,,FI
4,904,4,48.1105902,9.2743638,"72511 Bingen, Germany",Bingen,Germany,DE,Germany,Europe,,DE
5,905,4,49.9819529,11.6134138,"95463 Bindlach, Germany",Bindlach,Germany,DE,Germany,Europe,,DE
7,907,4,46.9275204,6.3486077,"25300 Doubs, France",Doubs,France,FR,France,Europe,,FR
8,908,4,51.8344172,10.7862526,"Wernigerode, Saxony-Anhalt, Germany",Wernigerode,Germany,DE,Germany,Europe,,DE
9,909,4,43.2630018,-2.9350039,"Bilbao, Basque Country, Spain",Bilbao,Spain,ES,Spain,Europe,,ES
10,910,4,50.7715779,3.8827287,"Geraardsbergen, Aalst, Belgium",Geraardsbergen,Belgium,BE,Belgium,Europe,,BE
11,911,4,52.2752188,7.9159335,"Lotte, North Rhine-Westphalia, Germany",Lotte,Germany,DE,Germany,Europe,,DE
12,912,4,47.9557802,21.7167982,"Nyíregyháza, Szabolcs-Szatmár-Bereg, Hungary",Nyíregyháza,Hungary,HU,Hungary,Europe,,HU
13,913,4,50.0914866,4.964068727877553,"Beauraing, Dinant, Belgium",Beauraing,Belgium,BE,Belgium,Europe,,BE
14,914,4,51.687337150000005,5.017307939950269,"Waalwijk, North Brabant, Netherlands",Waalwijk,Netherlands,NL,Netherlands,Europe,,NL
15,915,4,52.3025582,4.8467875,"Amstelveen, North Holland, Netherlands",Amstelveen,Netherlands,NL,Netherlands,Europe,,NL
16,916,4,52.17150665,5.645439299954028,"Barneveld, GE, Netherlands",Barneveld,Netherlands,NL,Netherlands,Europe,,NL
17,917,4,46.2727024,14.3163742,"Naklo, Slovenia",Naklo,Slovenia,SI,Slovenia,Europe,,SI
18,918,4,44.538239,8.155042,"Levice, Cuneo, Italy",Levice,Italy,IT,Italy,Europe,,IT
19,919,4,-6.5962986,106.7972421,"Bogor, West Java, Indonesia",Bogor,Indonesia,ID,Indonesia,Asia,,ID
20,920,4,51.8652855,4.3641111,"Hoogvliet, South Holland, Netherlands",Hoogvliet,Netherlands,NL,Netherlands,Europe,,NL
21,921,4,51.5562404,5.0886014,"Tilburg, North Brabant, Netherlands",Tilburg,Netherlands,NL,Netherlands,Europe,,NL
22,922,4,49.0541521,20.2976401,"Poprad, Slovakia",Poprad,Slovakia,SK,Slovakia,Europe,,SK
23,923,4,48.55260245,8.948447375795435,"72119 Ammerbuch, Germany",Ammerbuch,Germany,DE,Germany,Europe,,DE
24,924,4,48.4637727,8.4111727,"72250 Freudenstadt, Germany",Freudenstadt,Germany,DE,Germany,Europe,,DE
25,925,4,36.0638034,120.3781372,"Qingdao City, Shandong, China",Qingdao City,China,CN,China,Asia,,CN
26,926,4,48.221764,10.1058969,"89257 Illertissen, Germany",Illertissen,Germany,DE,Germany,Europe,,DE
27,927,4,48.640589,11.7820705,"84048 Mainburg, Germany",Mainburg,Germany,DE,Germany,Europe,,DE
28,928,4,49.8309059,7.5737063,"Langenthal, Rhineland-Palatinate, Germany",Langenthal,Germany,DE,Germany,Europe,,DE
29,929,4,46.3684202,14.1100595,"4260 Bled, Slovenia",Bled,Slovenia,SI,Slovenia,Europe,,SI
30,930,4,48.5112961,14.5047566,"4240 Freistadt, Austria",Freistadt,Austria,AT,Austria,Europe,,AT
31,931,4,50.9169415,13.3428889,"09599 Freiberg, Germany",Freiberg,Germany,DE,Germany,Europe,,DE
32,932,4,49.4422445,8.3542306,"67112 Mutterstadt, Germany",Mutterstadt,Germany,DE,Germany,Europe,,DE
33,933,4,47.2081355,7.5384045,"Solothurn, Amtei Solothurn-Lebern, Switzerland",Solothurn,Switzerland,CH,Switzerland,Europe,,CH
34,934,4,45.8121186,17.1834889,"Sibenik, Bjelovar-Bilogora County, Croatia",Sibenik,Croatia,HR,Croatia,Europe,,HR
35,935,4,51.8203938,8.6588368,"33161 Hövelhof, Germany",Hövelhof,Germany,DE,Germany,Europe,,DE
36,936,4,48.1747684,6.4503643,"88000 Épinal, France",Épinal,France,FR,France,Europe,,FR
37,937,4,51.5253758,12.1624395,"06188 Landsberg, Germany",Landsberg,Germany,DE,Germany,Europe,,DE
38,938,4,50.65546,9.7764627,"36088 Hünfeld, Germany",Hünfeld,Germany,DE,Germany,Europe,,DE
39,939,4,50.9852411,12.4340988,"04600 Altenburg, Germany",Altenburg,Germany,DE,Germany,Europe,,DE
40,940,4,43.5825155,16.5954344,"Dugopolje, Split-Dalmatia County, Croatia",Dugopolje,Croatia,HR,Croatia,Europe,,HR
41,941,4,31.8782976,120.5514595,"Zhangjiagang, Jiangsu, China",Zhangjiagang,China,CN,China,Asia,,CN
42,942,4,45.4208777,-75.6901106,"Ottawa, ON, Canada",Ottawa,Canada,CA,Canada,North America,,CA
43,943,4,29.5644007,120.8266704,"Shengzhou City, Zhejiang, China",Shengzhou City,China,CN,China,Asia,,CN
44,944,4,52.6410849,9.2181918,"31582 Nienburg/Weser, Germany",Nienburg/Weser,Germany,DE,Germany,Europe,,DE
45,945,4,50.5055291,5.6617176,"Sprimont, Liège, Belgium",Sprimont,Belgium,BE,Belgium,Europe,,BE
46,946,4,52.4827905,10.5445691,"38518 Gifhorn, Germany",Gifhorn,Germany,DE,Germany,Europe,,DE
47,947,4,51.8283677,7.2791406,"48249 Dülmen, Germany",Dülmen,Germany,DE,Germany,Europe,,DE
48,948,4,45.0478559,20.0807338,"22320 Indjija Municipality, Serbia",Indjija Municipality,Serbia,RS,Serbia,Europe,,RS
49,949,4,50.041821,8.584764,"Frankfurt, Hesse, Germany",Frankfurt,Germany,DE,Germany,Europe,,DE
50,950,4,47.46047585,11.99686013754938,"6250 Marktgemeinde Kundl, Austria",Marktgemeinde Kundl,Austria,AT,Austria,Europe,,AT
51,951,4,50.4726514,12.2748953,"Bergen, Saxony, Germany",Bergen,Germany,DE,Germany,Europe,,DE
52,952,4,53.4255609,7.2317881,"26759 Loppersum, Germany",Loppersum,Germany,DE,Germany,Europe,,DE
53,953,4,50.1284414,11.2433755,"96264 Altenkunstadt, Germany",Altenkunstadt,Germany,DE,Germany,Europe,,DE
54,954,4,51.5331484,4.4561276,"Roosendaal, North Brabant, Netherlands",Roosendaal,Netherlands,NL,Netherlands,Europe,,NL
55,955,4,47.423043,8.5670553,"Glattpark, Glattbrugg, Zurich, Switzerland",Glattbrugg,Switzerland,CH,Switzerland,Europe,,CH
56,956,4,47.9185855,13.8003048,"4810 Gmunden, Austria",Gmunden,Austria,AT,Austria,Europe,,AT
57,957,4,48.2506312,15.70506965062279,"Wasserburg, Lower Austria, Austria",Wasserburg,Austria,AT,Austria,Europe,,AT
58,958,4,48.927439,2.0428293,"78300 Poissy, France",Poissy,France,FR,France,Europe,,FR
59,959,4,43.4652699,-80.5222961,"Waterloo, ON, Canada",Waterloo,Canada,CA,Canada,North America,,CA
60,960,4,51.0274096,3.1402247,"8810 Lichtervelde, Belgium",Lichtervelde,Belgium,BE,Belgium,Europe,,BE
